id,name,region,latitude,longitude,name_alternates,wikipedia,prominence_rank
y123-dyirbal-jirrbal,Dyirbal / Jirrbal,Cape York & Torres Strait,-17.740226555635,145.66133402195,Dyirbal|Djirbalngan|Djiru|Giramay|Gulngai|Jirrbalngan|Keramai|Malanbara|Ngatjan|Mamu|Djirubal|Djirbal|Tjirbal|Chirpalji|Dyirbaldyi|Dyirbalngan|Chirpa|Choolngai|Njirma|Jirrbal,Dyirbal language,1
n20-tiwi,Tiwi,Top End & Arnhem (NT),-11.563361220759,130.75974911356,Tunuvivi|Diwi|Nguiu|Nimara|Wonga:k|Woranguwe|Wunguk|Wunuk|Yeimbi,Tiwi language,2
y82-guugu-yimidhirr,Guugu Yimidhirr,Cape York & Torres Strait,-15.085217541197,144.94279460915,Guguyimidjir|Kokoimudji|Kokonjekodi|Balara|Boolcanara|Bullangi|Bulponara|Bulpoonarra|Djidjul|Emoji|Galai Garburnga|Gog yimidjir|Gogo Yimidjir|Gu|gu Yimidir|Gug Imudji|Gug timidir|I:du|Imudji|Ithu|Jidhu|Jimidir|Jimudji|Jungkurara|Junkara|Kalay|Karpungga|Karpurnka|Koko Dyungay|Koko Ialiu|Koko Ialunia|Koko Yimidjir|Koko aungu|Koko jimidir|Koko yimidir|Kokodjilandji|Kokojalanja|Kokojimoji|Kokoyalunyu|Kookawanga|Kookoymma|Kookoyuma|Kuku Yimidyi|Tyrhal|Wiu|Wuriwatha|Wurkuldi|Yokarra|Yung Kurara|Yungkarara|YunguraraYimidir|Gugu Yimidhirr|Yimithirr|Guugu Yimithirr,Guugu Yimithirr language,3
c15-warlpiri,Warlpiri,Central Desert,-20.433595605496,131.05240928361,Lander Warlpiri|Ngalia|Walbiri|Walmalla|Walpiri|Waneiga|Warlmala|Alpira|Alpiri|Elpira|Ilpara|Ilpira|Ilpirra|Nambulatji|Njambalatji|Ulperra|Wailbri|Walbrai|Walbri|Waljbiri|Waljpiri|Walpari|Warrabri|Wolperi|Wolpirra|Waibry|Nambutj|Nambutju|Waibri|Albura|Boonara|Bunara|Buruwatung|Ipara|Jalpiri|Kolo|Kukuruba|Manggai|Munga|Nambuda|Nanbuda|Ngadi|Ngali|Ngaliya|Ngallea|Ngallia|Ngardi|Ngari|Ngarilia|Ngarliya|Warrmarla|Warnayaka|Ngardilypa|Yarlpiri|Njalia|Ooldean|Panara|Puruwantung|Waiangadi|Waiangara|Waingara|Wakirti Warlpiri|Walmala|Walmanba|Wanaeka|Wanajaga|Wanajaka|Wanajeka|Wanayaga|Warangari|Waringari|Warniaka|Warramulla|Wawilja|Wommana|Woneiga,Warlpiri language,4
s64-dharug-darug,Dharug / Darug,SE Australia,-33.889577865158,150.04841244489,Dharuk|Dharuk etc|Daruk|Oharruk|Dharrok|Darrkinyung|Dharruk|Dharrook|Darrook|Dharug|Darug,Dharug language,5
c6-pitjantjatjara,Pitjantjatjara,Central Desert,-25.664115063165,130.065503849,Pitjantjatjarra|Bidjandjadjara|Pitjantjara|Bidjandja|Bidjandjara|Bidjuwongga|Bidyandyadyara|Bindjandjadjara|Gunggawara|Ituarre|Jabu|Kalgonei|Mamoo|Mamu|Mangawara|Mulatara|Nangatadjara|Njangadjadjara|Nyangatjatjara|Partutu|Peechintarra|Pidjandja|Pidjandjara|Pidzandza|Pijandarra|Pintularapi|Pitchentara|Pitdjandjara|Pitindjatjara|Pitjandara|Pitjandjadjara|Pitjandjara|Pitjanjarra|Pitjanzazara|Pitjendadjara|Pitjentara|Pitjindjatjara|Pitjindjiara|Pitjinjara|Pitjinjiara|Pitjintara|Pitjintjitjira|Pitkindjara|Pituari|Tjitiadjara|Tjurti|Wankawinan|Wanudjara|Widanda|Widjandja|Wirtjapakandja|Wongapitcha|Wongapitja|Wongapitjira|Bidjandjadjara/Njangadadjara|Woga pitja,Pitjantjatjara dialect,6
c8-arrernte,Arrernte,Central Desert,-23.912769752563,134.26092317523,Aranda|Ikngerripenhe|Eastern Aranda|Mparntwe Arrernte|Central Aranda|Tyuretye Arrernte|Arrernte Alturlerenj|Western Aranda|Pertame|Southern Aranda|Arrarnta|Aldolanga|Aldolinga|Alitera|Aranta|Arinta|Arranda|Arrinda|Arrundta|Arunda|Arrunta|Arunndta|Arunta|Arunta Ulpma|Burringah|Herrinda|Ilpma|Jairunda|Oiljpma|Paroola|Pirdima|Pitjapitja|Pitjima|Ulpma|Urrundie|Waitjinga|Wonggaranda|Wongkatjeri|Wychinga|Western Arrernte|Eastern Arrernte|Sourthern Aranda|Arrente,Arrernte language,7
l10-adnyamathanha,Adnyamathanha,Lake Eyre / Central SA,-30.350211730328,138.88257707454,Adnymathanha|Adjnjamathanha|Adynyamathanha|Adnjamathanha|Jadliaura|Ngudlawara|Wailpi|Walypi|Adnamadana|Adjnjamatana|Adnamatana|Adnjamadana|Adnjamadhanha|Adnjamatana|Adnjamathera|Adnjmadhanha|Adnjnjamathanha|Adyamatana|Andjama Dana|Andyamatana|Anjamatana|Anjamutina|Anjimatana|Anjiwatana|Anjiwatina|Anyamatana|Archualda|Atjualda|Benbakanjamata|Benbakanjamatana|Binbarnja|Binbarnya|Gadjnjamada|Gadjnjamadja|Ganjamadna|Imatjara|Kanjamata|Kanjimata|Keidnamutha|Keydnjamarda|Keydnjmarda|Kudjamuther|Kudjchnamootha|Kudnamietha|Kutchhamootha|Kutchnamoota|Kutchnamootha|Mardala|Mardula|Ngatjuwalda|Nimalda|Nimbalda|Nimbaldi|Nuralda|Umbertana|Unyamatana|Unyamootha|Wadla|Wailbi|Wajalpi|Waljbi|Wipie|Adnyamathana|Adnjamadana Wailbi|Adnyamatana,Adnyamathanha language,8
y3-meriam-mir,Meriam Mir,Cape York & Torres Strait,-9.683089797572,143.77542511209,East Torres|Miriam|Meryam Mir|Meriam|Boigu|Buibatyalli|Errob|Erub|Garamir|Gaurareg|Maer|Maralaig|Mer|Meryam|Morolag|Sabai|Saibai|Tagota|Ugar,Meriam language,9
c4-yankunytjatjara,Yankunytjatjara,Central Desert,-26.623693675417,132.26055292732,Yankuntjatjarra|Yankuntjatjara|Alinjera|Ankundjara|Jan gundjara|Janggunadjara|Janggundjara|Jangkudjara|Jangkuntjarra|Jangkundjadjara|Jangkundjara|Jangwundjara|Jankundjadjara|Jankundjara|Jankundjindjara|Jankuntjatara|Jankuntjatjara|Jankunzazara|Jankunzazzara|Kaltjilandjara|Nankundjara|Wirtjapakandja|Wirtjapokandja|Yangkuntjatjara|Yangundjadjara|Yangundyadyara|Yankundyari|Yankunjara|Yangundjara|Yankuntjara|Yangkundjara|Everard Range Tribe’,Yankunytjatjara dialect,10
k6-gooniyandi,Gooniyandi,Kimberley (WA),-18.590969909164,126.17902403966,Guniyandi|Guniyan|Gunian|Gunijan|Konejandi|Kunian|Cowrana|Goonien|Gunan|Guniandi|Gunin|Gunyari|Konajan|Konean|Konejanu|Koneyandi|Kunan|Kuniandu|Wadeawulu|Bunuban family,Gooniyandi language,11
y1-kala-lagaw-ya,Kala Lagaw Ya,Cape York & Torres Strait,-10.111847445993,142.1928891886,Kalaw Kawaw Ya/Kalaw Lagaw Ya|West Torres|Kalaw Kawaw Ya|Kala Lagaw Langgus|Yagar Yagar|Mabuiag|Kowrarega|Karualaig|Kala Lagaw Langgus Yagar Yagar|Kala Kawaw Ya|Kalau Lagau Ya,Kalaw Lagaw Ya,12
w41-noongar-nyungar,Noongar / Nyungar,SW WA / Pilbara,-32.922134838511,117.84001285205,Nyungar|Nyunga|Wudjari|Njunga|Wudjarima|Wuda|Wudja|Widjara|Warangu|Kwaitjman|Ngokwurring|Ngokgurring|Nunga|Njungar|Nonga|Yunga|Yungar|Njungura|Karkar|Caskcar  Daran for Wudjari|Noongar,Noongar language,13
c10-pintupi,Pintupi,Central Desert,-23.370096838363,127.58170309929,Pintupi Luritja|Bindubi|Ildawonga|Wenamba|Bindaboo|Bindabu|Bindiboo|Bindibu|Bindooboo|Bindubu|Kalgonei|Kalgoneidjara|Kalguni|Loritja|Luridja|Luritja|Matjunalatara|Panika|Pi:ntubi|Pindu|Pindubu|Pintubidjara|Pintubitjara|Pintubu|Pintudjara|Pintularapi|Pintunala|Puntubu|Teitudjara|Wankawinan|Wenaba|Wiluraratja|Ildawongga|Panika for Pintubi|Ilda|Ilta|Manggawara|Wananwanari|Maiidjara|Maiadjara for Ildawongga,Pintupi dialect,14
n27-wagiman,Wagiman,Top End & Arnhem (NT),-14.012172251408,131.16935888386,Wageman|Airiman|Tagoman|Wagoman|Ongkakaringa|Wagaman|Wogeman|Wongkakaringa|Wakiman,Wagiman language,15
a66-walmajarri,Walmajarri,Western Desert (WA),-19.467373171132,126.15125175949,Walmatjarri|Walmadjari|Wolmatjeri|Wolmeri|Bililuna dialect|Djiwalinj|Djiwalinja|Djualin|Djuwali|Jiwarliny|Juwaliny|Ngadjukura|Ngainan|Nganang|Pitangu|Tjiwali|Tjiwalindja|Tjiwaling|Tjiwarlin|Walmadere|Walmadjeri|Walmadyari|Walmadyeri|Walmaharri|Walmaharry|Walmajai|Walmajari|Walmajeri|Walmatjari|Walmatjeri|Walmatjiri|Walmeri|Wanaeka|Waneiga|Wanmadjari|Warinari Pundur|Warmala|Wolmadjari|Wolmaharry|Wolmaijari|Wolmera|Wulumarai|Wulumari|Wariari Pundur,Walmajarri language,16
n151-anindilyakwa,Anindilyakwa,Top End & Arnhem (NT),-13.931088898354,136.58538816163,Aninhdhilyagwa|Yingguru|Warnindilyakwa|Enindilyakwa|Ingura|Amakurupa|Andilagwa|Andiljaugwa|Andiljaukwa|Andilyaugwa|Anindiljaugwa|Anindilyaugwa|Awarikpa|En Indiljaugwa|Endiljaugwa|Enindilyaugwa|Groote Eylandt|Lamadalpu|Wani Ndiljaugwa|Wanindilyaugwa|Enindhilyagwa|Anindhilyakwa|Eninhdhilyagwa|Wanindilyaugwa Ingura,Anindilyakwa language,17
n39-iwaidja,Iwaidja,Top End & Arnhem (NT),-11.612947182736,132.69622018507,Iwaydja|Adawuli|Djalakuru|Gaari|Garrig|Jaako|Jiwadza|Marlgu|Oitbi|Uruku|Wurango|Eae warge ga|Eaewandja|Eaewardja|Eaewarga|Eawaitja|Eewardja|Eiwaja|Gari|Idjduwa|Ilkar|Iwaidji|Iwaija|Iwaiji|Iwaji|Iyi|Jewitcha|Ji:wadja|Jiwaidja|Juwadja|Limba Kar adjee|Limbakaraja|Manduwid|Ngadalwuli|Oidbi|Tarula|Unalla|Uwaidja|Yiwadja|Yiwadya|Yiwayja|Yiwaidja|Iwaja,Iwaidja language,18
y69-kuuk-thaayorre,Kuuk Thaayorre,Cape York & Torres Strait,-14.909010990228,141.78701479664,Kuuk Thayorre|Thayore|Thaayorre|Koko Daiyuri|Koko Taiyor|Taior|Bohran|Da:jor|Daiyuri|Dayorr|Gugujak|Kokkotaijari|Koko|Koko Tayorre|Koko yak|Kokotaiyari|Kokotayor|Taiol|Taiyor|Tayor|Tayore|Tayorr|Thayarre|Thayorre|Ku k Thayori|Dha:yorre|Kuuk Thaayoore|Thaayore|Gugudayor|Kuktayor|Kukudayore|Behran|Thaayorr,Kuuk Thaayorre language,19
k29-miriwoong-miriuwung,Miriwoong / Miriuwung,Kimberley (WA),-15.886297346976,128.86767402237,Miriwung|Mariu|Miriung|Mariyung|Miriwong|Miriwu|Miriwun|Mirong|Mirriwong|Mirung|Moreng|Mireau|Miriwoong|Miriuwung,Miriwoong language,20
n128-wubuy-nunggubuyu,Wubuy / Nunggubuyu,Top End & Arnhem (NT),-13.86980990371,135.5886143023,Wubuy|Yingkwira|Nangabuya|Ningburia|Nuggaboju|Nugubuyu|Nungabuju|Nungabuya|Nungabuyu|Nungbuju|Nunggaboju|Nungguboiju|Nungguboiyu|Nunggubuju|Nunguboiyu|Nungubuju|Nungubuyu|Nunggabuyu|Nungkubuyu|Nunggubuyu,Nunggubuyu language,21
n155-garrwa,Garrwa,Top End & Arnhem (NT),-16.856777918351,137.27377744599,Garawa|Karawa|Grawa|Kariwa|Karrawar|Kar´wa|Korrawa|Kurrawar|Leearawa|Wollongorang|Wulungwara|Leearrawa|Korrwa|Garuwa|Garrawa|Karrwa,Garrwa language,22
y78-kuku-yalanji,Kuku Yalanji,Cape York & Torres Strait,-16.497447852508,144.6293751535,Kuku Yalaja|Kuku Yelandji|Djankun|Jungkurara|Kokojelandji|Kokokulunggur|Kokowalandja|Muluridji|Wakara|Wulpura|Booroorar|Cangoora|Chokonara|Cuegudira|Djiling|Gugu Jalandji|Gugu Yalandji|Gugu Yalanji|Gumbo|Gumbu|Jal:a|Jelanji|Jiling Juliacara|Junkara|Kokalungie|Koko Yerlandji|Koko yalanji|Koko yerlandtji|Koko yerlantchi|Koko yerlantji|Kokolerlaatchi|Kokolunge|Kokoyellanji|Kooka alanji|Kuku Yalandji|Kyahara|Lerlantchi|Moorara|Nooroorarra|Tchoolooorara|Tondayara|Walparara|Yalampa|Yalandji|Yalandyi|Yallar|Yelandji|Yiling|Yoon koor ara|Yunkurara|Kokolerlantchi|Gugu Yalandyi|Koko Katji|Guugu Yalandji,Guugu Yalandji language,23
n21-larrakia,Larrakia,Top End & Arnhem (NT),-12.51763346522,130.84139962194,Larrakiya|Gulumirrgin|Laragia|Larakia|Binnimiginda|Gunmajerrumba|Laragai|Laragiya|Larakeeyah|Larakiya|Larikia|Larragea|Larrakeah|Larrakeeha|Larrakeeyah|Larrakiha|Larreekeeyah|Larrekiya|Larriguia|Larrikaa|Larrikia|Larrikiha|Larrikiya|Larriquia|Marri|Woolsoongah|Larragia|Larekia|Ngandalagarak Larrakeah,Laragiya language,24
n3-murrinh-patha,Murrinh-patha,Top End & Arnhem (NT),-14.747346346964,130.00346421595,Murinbata|Muringura|Murrinhkura|Murinjbada|Murinypata|Murinypatha|Murrinh diminin|Murrinh gurra|Murinjpata|Murinbada|Marri wutha|Karama|Garama|Karaman|Murinkura|Nagor|Nangu|Mariwada|Mariwuda,Murrinh-patha language,25
n92-alawa,Alawa,Top End & Arnhem (NT),-15.523673824618,134.47958643695,Galawa|Warliburru|Wilingura|Ngewin|Alaua|Allaua|Allaura|Allawa|Allowa|Allowiri|Allua|Alowa|Galleewo|Kallaua|Leealowa|Woolooami|Kallana|Walkonda|Walooka|Galleewa,Alawa language,26
e12-bundjalung,Bundjalung,SE Queensland,-29.251261354257,153.07515373674,Bandjalang|Arakwal|Badjulung|Banjalang|Birihn|Dinggabal|Geinyan|Gidabal|Jukambal|Jukambe|Kalibal|Keinjun|Kitabal|Minjunbal|Ngarahgwal|Nyangbal|Wahlubal|Widjubal|Wiyabal|Wudjehbal|Yugambeh|Badjalang|Badjelang|Bandjalong|Bandjelang|Bandyalang|Beelia|Beeloo|Bogganger|Budulung|Buggul|Bundala|Bundel|Bundela|Bundjulung|Bundyulen|Bunjellung|Derbal|Ilakuri wongi|Juadjag|Juadjek|Juadjuk|Karakata|Karrakatta|Minal njunga|Minnal Yungar|Mooro|Murram|Paikalyug|Paikalyung|Wadjug|Wadjuk|Wadjup|Wajuk|Watchee|Whadjuk|Whajook|Widje|Witja:ri|Woomargou|Yooadda|Yooard|Yoongar|Yuard|Yuatjek|Yungar|Yungur|Bandjalung,Yugambeh–Bundjalung languages,27
n50-gaagudju,Gaagudju,Top End & Arnhem (NT),-12.434077327456,132.671608496,Gagadu|Gagudju|Kakadu|Kakudju|Ngardok|A:rwu:r|Abedal|Abiddul|Auwur|Awur|Gagadju|Gagadyu|Ka:ka:dju|Kadadju|Kakakta|Kakata|Kakatu|Karkadoo|Karkardoo|Kukata|Katata|Gaguju|Kakaju|Awoy,Gaagudju language,28
e7-gumbaynggirr,Gumbaynggirr,SE Queensland,-30.087643010269,152.44568760982,Gumbaynggir|Kumbainggar|Gumbainggir|Baanbay|Banbai|Gamlamang|Jiegera|Kumbainggiri|Yaygir|Yuungay|Cambanggarie|Coombagoree|Coombangree|Coombargaree|Coombyngara|Coombyngura|Coombyugura|Cumbainggar|Guinbainggiri|Gumbainggirr|Gumbainga|Gumbainggar|Gumbanga|Gumbanggar|Gumbanggeri|Gumbanjaree|Gumbayngir|Gunbainygar|Kombaingheri|Kombinegherry|Koombabgghery|Koombainga|Koombanggary|Koombanggherry|Koombangi|Kumbaingeri|Kumbainggeri|Kumbainggir|Kumbainggirri|Kumbaingir|Kumbangerai|Nimboy|Orara|Woolgoolga|Koombangghery|Kumbanggerri|Koombanggaree|Kumbainggerri|Kumbinggeri|Kumbanggar|Gumbaigar|Gunbaigar|Gumbaingar,Gumbaynggirr language,29
n18-jaminjung,Jaminjung,Top End & Arnhem (NT),-15.154028288381,130.39030229891,Djamindjung/Ngaliwuru|Djamindjung|Alura|Jaminjang|Tjaminjun|Djamundon|Murinyuwen|Djamindjun|Tjamindjung|Djamunjun|Kaminjung|Djamadjong|Murinyuwan,Jaminjung language,30
a38-ngaanyatjarra,Ngaanyatjarra,Western Desert (WA),-25.80043240336,127.35345751349,Ngaanjatjarra|Nana|I:nabadanggural|Jumudjara|Kalgonei|Kalgoneidjara|Kalguni|Kuwaratjara|Nangandjara|Nangaridjara|Ngaanjadjara|Ngan:adjara|Ngana|Ngatari|Nona|Warburton Ranges|Ngadadjara|Ngaanyatjara|Warburton Ranges Dialect|Jabungadja|Ku:rara|Nadadjara|Nga:da|Nga:dapitjardi|Ngad adara|Ngadatara|Ngadatjara|Ngadawongga|Ngadjatara|Ngatatara|Ngatatjara|Rumudjara|Teitudjara|Wan:udjara|Warara|Wirtjandja|Witjandja,Ngaanyatjarra dialect,31
a80-western-desert-language,Western Desert language,Western Desert (WA),-26.337337816815,127.10810714062,The Western Desert language|Western Desert,Western Desert language,32
n47-amurdak,Amurdak,Top End & Arnhem (NT),-11.950287363885,132.87361226866,Amurdag|Wardadjbak|Amooridiyu|Amarag|Amarak|Amurrag|Amurag|Amurrak|Amurtak|Amuruk|Mamurug|Monobar|Namurug|Ngamrrak|Ngamurag|Ngamurak|Umoordak|Umoreo|Umoriu|Amardak|A'moordiyu|Woraidbug,Amurdak language,33
k15-bardi,Bardi,Kimberley (WA),-16.668163920215,122.90225739947,Baardi|Baard|Baada|Ba:d|Ba:di|Baad|Bard|Barda|Board,Bardi language,34
n82-burarra,Burarra,Top End & Arnhem (NT),-12.161770746066,134.5807095628,Anbarra|Gadjalivia|Gidjingali|Bara|Barada|Barara|Barea|Barera|Baurera|Bawera|Birarra|Burada|Burara|Burera|Gidjingale|Gudjalayia|Gurmadja madja|Jikai|Ku jarlapiyi|Tchikai|Tha ra ra burra|Thar ar ra burra|Toolginburra|Anbara|Burrara,Burarra language,35
g35-kayardild,Kayardild,Gulf Country,-17.030578639892,139.489223589,Gayardilt|Kaiadilt|Bentinck Islanders|Gaiardilt|Gaja|dilt|Gajadild|Gajardild|Gajardilt|Gaya|Gayadilt|Kaiadil|Kaiadilt Madunun|Maldanunda|Malununda|Malununde|Mardunung|Marlanunda|Gayardild|Guyadilt|Madunun,Kayardild language,36
w35-martuthunira,Martuthunira,SW WA / Pilbara,-21.405484350395,116.45087969332,Martuyhunira|Mardathon|Mardatuna|Mardayunira|Mardudjungara|Mardudunera|Padupadu|Jawunmala|Maratunia|Mardadhunira|Mardadhuniya|Mardathoni|Mardathoonera|Mardathunera|Mardathunira|Mardatunera|Mardudhoonera|Mardudhunera|Mardudhunira|Marduduna|Marduthunira|Mardutunira|Marduyhunira|Martuthuniya|Martuyunira|Mardutunera,Martuthunira language,37
n64-mawng,Mawng,Top End & Arnhem (NT),-11.813898254873,133.36400767602,Maung|Mawung|Gun marung|Managari|Manangari|Marung|Mau|Maw|Men ngai|Kunmarung|Mauung|Gunmarang,Maung language,38
n40-1-ngomburr,Ngomburr,Top End & Arnhem (NT),-12.79362392391,132.12958497813,Ngumbur|Ngurmbur|Ngombur|Murumburr|Ambugula|Ambuku:la|Corm bur|Gnormbur|Gnornbur|Gnumbu|Koarnbut|Nambuguja|Ngorbur|Ngorm bur|Ngumbu|Numbugala|Oorm bur|Umbugarla includes Umbugarla proper|It also appears that it may have included Bugurnidja,Ngurmbur language,39
n35-wardaman,Wardaman,Top End & Arnhem (NT),-15.3569280628,131.52699746908,Wadaman|Wadderman|Waderman|Waduman|Warduman|Wartaman|Wordaman,Wardaman language,40
y57-wik-mungkan,Wik Mungkan,Cape York & Torres Strait,-13.722681824321,142.3262549944,Wik Mungknh|Wik Munkan|Wik|Mimungkum/Wik Mungkana|Wikatinda|Wik Ompom|Wikampama|Wik Kalkan|Wik Ngathara|Wik Epa|Wik Meanha|Wikmean|Wiknatanja|Mimungkum|Wik Mungkana|Wiknantjara|Anja|Ayan|Badjimu|Monkanu|Mugola|Munggan|Munggano|Mungkan|Munkan|Munkanj|Munkanu|WikHungkan|Wik Mongkan|Wik Monkan|Wik Mongken|Wik Munggan|Wik Mungkanh|Wik Mungken|Wika Munkan|Woran am|Wik Mungknh hill|Munggan (Wik-),Wik Mungkan language,41
k17-worrorra,Worrorra,Kimberley (WA),-15.621326448715,124.87587090613,Worora|Jaudibaia|Maialnga|Worara|Wororra|Worrara|Wurara|Worrora|Wurora|Wurura|Variants of the language name:|Yangibaia|Kularri/Gularri south westerners,Worrorra language,42
k22-wunambal,Wunambal,Kimberley (WA),-14.879395710842,125.46376386735,Wunambul|Unambal|Jamindjal|Jarmindjal|Kanaria|Laiau|Peremanggurei|Unambalnge|Wanambal|Wardana|Winjai|Wonambul|Wumnabal|Wunambullu|Wunambulu|Kularri/Gularri south westerners|Wulanggu|Wunambal ngarri,Wunambal language,43
c5-antikarinya,Antikarinya,Central Desert,-27.029789016408,134.01663567272,Antakarinya|Antakarinja|Andagirinja|Aldolinga|Alinjerra|Aluna Aluna|Andagarindja|Andagarinja|Andakirinja|Andayarinja|Andegilliga|Andekarinja|Andekerinja|Andgari|Andigari|Andigarina|Andigarinya|Andigidini|Andigiri|Andigirinji|Andigiriny|Andingari|Andjirigna|Andjiringna|Andongerry|Andrgrinji|Andugarinja|Anjirigna|Antakerinya|Antakerrinya|Antakirinha|Antakirinja|Antegarinya|Antekarinja|Anterrikanya|Antigari|Antigerinya|Antingari|Antingerrie|Gunmarang|Kadjilaranda|Maduntara|Madutara|Maiuladjara|Maiulatara|Manangari|Matjutu|Matuntara|Matutara|Mau|Maung|Mauung|Mbenderinga|Mularatara|Ngonde|Njuntundjara|Southern Loritja|Tangara|Untergerrie|Unterrgerrie|Walarangunja|Walarenunga|Yandairunga|Yanido|Andingiri|Andagarinya|Aluna,Antakarinya language,44
s66-awabakal,Awabakal,SE Australia,-33.055058071214,151.52667363956,Awabagal|Awaba|Kuri|Kuringgai|Lake Macquarie|Awarbukal|Arwarburkarl,Awabakal language,45
k5-bunuba,Bunuba,Kimberley (WA),-17.724740792483,125.60516873534,Bunaba|Punuba|Punaba|Booneba|Boonooba|Bunapa|Kunamba|Punamba|Punapa|Punupa|Buniba|Bunuban,Bunuba language,46
y106-djabugay-tjapukai,Djabugay / Tjapukai,Cape York & Torres Strait,-16.737168486512,145.50845426914,Dyaabugay|Djabuganjdji|Buluwai|Irukandjai|Dyabugay|Tjapukandji|Tjapukanja|Tjabogaitjandji|Tjabogaijanji|Kokonjunkulu|Kokonyungalo|Koko Tjumbundji|Hileman|Njakali|Nyakali|Tjabogai tjanji|Tcabogai tjanji|Toabogai tjani|Dyabugandyi|Tapelcay|Tuffelcey|Barron River dialect|Binggu|Djabugay|Tjapukai,Djabugay language,47
k12-jaru,Jaru,Kimberley (WA),-18.517289717412,128.22757747316,Djaru|Jaruru|Jaroo|Djaro|Jarroo|Jarrou|Jarrau|Charrau|Jaruo|Djara|Deharu|Njining|Njinin|Nyinin|Nining|Neening|Meening|Ka:biri|Karbery|Kodjangana,Djaru language,48
c22-jingulu,Jingulu,Central Desert,-17.350765267549,133.70151286316,Djingulu|Djingili|Jingili|Tjingili|Tjingilu|Tjinggili|Tjingilli|Tjingali|Tjingalli|Chingalee|Chingalli|Tjingale|Tchingalee|Djingali|Djinggili|Tingalie|Leechunguloo,Jingulu language,49
w28-jiwarli,Jiwarli,SW WA / Pilbara,-23.497306025591,115.90091904253,Tjiwarli|Djiwarli|Djiwali|Dyiwarli|Guwari|Jiwali|Kuwari|Mantharta|Tai warli|Tjiwarliny|Jivali|Tci warli|Tjiwali|Tivali,Jiwarli dialect,50
g13-kalkatungu-kalkadoon,Kalkatungu / Kalkadoon,Gulf Country,-20.886512982542,139.89001993296,Kalkutungu|Kalkutung|Calcadoon|Galgadung|Galgadunga|Galgadungu|Kalkadoona|Kalkadun|Kalkadung|Kalkadunga|Kalkaladoona|Kalkatongo|Kalkatunga|Kulkadoon|Kulkadoona|Kulkodone|Mantaba|Roongkari|Rungkari|Kalka donna|Kalkatungu|Kalkadoon,Kalkatungu language,51
y83-kunjen,Kunjen,Cape York & Torres Strait,-15.723816026628,142.65433402528,Cape York Peninsula Languages|Gugu Nyungkul|Kawarrangg|Laia|Muragan|Ngundjan|Okunjan|Olkolo|Oykangand|Ayan|Gudjal|Gundjen|Gundjun|Ikan|Koonchulburra|Koonjan|Koonjen|Kundjen|Kuntjan|Kuritja:l|Kutabal|Kuthabal|Kutjal|Kwearriburra|Ogh Undyan|Ogondyan|Ogontjel|Okundjain|Okuntjel|Oyangant|Oggonjin|Kundjan|Koko Kuntjan|Kundjin|Kokoyan|Kunjin|Koko wansin,Kunjen language,52
a6-maduwongga,Maduwongga,Western Desert (WA),-23.350911655789,123.66842240336,Martu Wangka|Manjtjiltjara|Martu|Wangka|Mardu|Budijarra|Gardujarra|Giyajarra|Kartudjara|Keiadjara|Mandjildjara|Manyjilyjarra|Potidjara|Wanman|Jindi|Julbaritja|Kabul|Maduwangga|Maduwonga|Mardo|Mardudjara|Yindi|Marduwangga,Martu Wangka dialect,53
a96-mandara,Mandara,Western Desert (WA),-23.364436323926,119.2811246941,,Mandara language,54
n7-marrithiyel,Marrithiyel,Top End & Arnhem (NT),-13.834648747329,130.01293523915,Marithiel|Brinken|Marri Ammu|Marridan|Marrisjefin|Matige|Berinken|Berinkin|Berringin|Brinkan|Magatige|Marathiel|Maridhiel|Maridiel|Maridiyal|Maridiyel|Marithid|Maritige|Muringa|Muringata|Muringe|Maridjiel|Maridhiyel|beringken|commonly adapted into English as Brinkin,Marrithiyel language,55
y115-mbabaram,Mbabaram,Cape York & Torres Strait,-17.264955959177,145.07773954753,Barbaram|Balbarum|Bar Barrum|Barbarem|Barbarum|Booburam|Gugu Mbabaram|Illagona|Kwearriburra|Mogmbabarum|Morruburra|Oombarbarum|Queeariburra|Umbarbaram|Warrialgona|Woombarbarram|Woombarrmbarra|Wumbabaram|Wumbarbaram|Koko Beberam  this is not equivalent of Mbabaram,Mbabaram language,56
n43-mbukarla,Mbukarla,Top End & Arnhem (NT),-12.983006563057,132.36658194341,Umbugarla|Puneitja|Bugula|Numbugala|Ambugala,Umbugarla language,57
n211-nhangu,Nhangu,Top End & Arnhem (NT),-11.85322092545,135.70220743367,Nango|Nangu|Murungga|Miarrmiarr,Nhangu language,58
y129-nywaigi,Nywaigi,Cape York & Torres Strait,-19.147356322328,146.39195338193,Nyawaygi|Manbara|Nawagi|Warakamai|Wulgurukaba|Geugagi|Negewi|Newigi|Nyawigi|Njawigi,Nyawaygi language,59
l6-parnkalla,Parnkalla,Lake Eyre / Central SA,-32.688365696005,136.81009043454,Banggarla|Bangalla|Arkaba tura|Ba:Nggala|Ba:njgala|Bahanga la|Bahngala|Bangala|Barngarla|Bungeha|Bungala|Bungela|Kooapidna|Kooapudna|Kortabina|Pangkala|Pankala|Pankalla|Pankarla|Parkalla|Parnkala|Punkalla|Punkirla|Wanbirujurari|Willara|Willeuroo|Pangkarla,Barngarla language,60
y45-umpila,Umpila,Cape York & Torres Strait,-13.64420087024,143.43143574801,Cape York Peninsula Languages|Ompela|Djindjanagu|Djundjanagu|Koko umpilo|Ombila|Ompeila|Oombilla|Umbila|Umpile|Umpilo,Umpila language,61
c19-wambaya,Wambaya,Central Desert,-18.173055306326,135.43105010266,Wambaia|Wombaya|Umbaia|Umbia|Wambaja|Wampaja|Wom by a|Wombaia|Wonbaia|Yumpia|Wampaya|Wobya|Wailwan|Wailwin|Wailwun|Waljwan|Wamgaja|Wilwan|Ympia,Wambaya language,62
y133-warrungu,Warrungu,Cape York & Torres Strait,-18.034036734305,145.23973205838,Warungu|Gugu Badhun|Gudjal|Guridjal|Kokopatun|Kutjala|Bara Warrialgona|Kuritjal|Warrialgona,Warrongo language,63
d10-wiradjuri,Wiradjuri,Darling (W NSW/SW Qld),-33.909180160775,147.25734640665,Wiradhurri|Wirratherie|Wirradgerry|Waradgery|Woradgery|Wiradhuri|Jeithi|Berrembeel|Junamildan|Waradgeri|Warandgeri|Warradjerrie|Warrai Durhai|Wayradgee|Weeragurie|Weerarthery|Weorgery|Weradgerie|Werogeri|Werogery|Wiiradurei|Wiiratheri|Wir rajer ree|Wira athoree|Wira durei|Wira shurri|Wiradhari|Wiradjari|Wiradjeri|Wiradjwri|Wiradthery|Wiradthuri|Wiraduri|Wiradyuri|Wiragere|Wiraijuri|Wirajarai|Wirajeree|Wirajerry|Wirashuri|Wirathere|Wiratheri|Wiraturai|Wirotheree|Wirra jerre|Wirra athoree|Wirra dhari|Wirra dthoor ree|Wirra dthooree|Wirracharee|Wirrach arree|Wirraddury|Wirradhurri|Wirradjerri|Wirradjery|Wirraiyarrai|Wirraidyuri|Wirraijuri|Wirrajeree|Wirrajerry|Wirrathuri|Wooradgery|Woorajuri|Wooratheri|Wooratherie|Woradjera|Woradjerg|Wordjerg|Wuradjeri|Wira Athorree|Kunamildan,Wiradjuri language,64
n72-yan-nhangu,Yan-nhangu,Top End & Arnhem (NT),-12.007678358496,135.23641689697,Jarnango|Jaernungo|Janango|Jandango|Janjango|Jannangu|Jarnangu|Jarrangu|Kokolango|Yaernungo|Yandango|Yarnango|Yarrnangu|Yorngar|Nango|Yanna?u|Yaerungo|Murru?un|Djina?|Gunbirri|Mälarrai|Malarra|Malara|Nhangu,Nhangu language,65
y117-yidinj,Yidinj,Cape York & Torres Strait,-17.087085354442,145.76560334269,Yidiny|Yidinjdji|Gungganyji|Idindji|Kongkandji|Madjandji|Wanjuru|Bolambi|Boolboora|Charroogin|Deba|Djumbandji|Eneby|Gerrah|Gijow|Gillah|Guwama:l|Ituntji|Idi|Idin|Idin wudjar|Iding|Idinji|Indindji|Itti|Jidindji|Jumbandjie|Kitba|Maiara|Maimbi|Maimbie|Mulgrave River dialect|Mungera|Myarah|Ohalo|Pegullobura|Warra warra|Warryboora|Woggil|Yellingie|Yetinji|Yettingie|Yiddinji|Yidin|Yidindji|Yidindyi|Yidtinji|Yiti Ntyi|Yukkaburra,Yidiny language,66
y65-aghu-tharnggala,Aghu Tharnggala,Cape York & Torres Strait,-14.922659058108,144.13583123805,Aghu Tharrnggala|Aghu Tharnggalu|Aghu|Agu Tarnggele|Aku Danggela|Darnggele|Darnggelle|Aghu Tharnggal|Aghu Tharnggalai,Aghu Tharrnggala language,67
l13-arabana,Arabana,Lake Eyre / Central SA,-28.416910395878,136.08372123795,Arabana/Wangkangurru|Arabuna|Arabunna|Arapani|Arapina|Arebana|Arrabonna|Arrabunna|Arubbinna|Jendakarangu|Ngarabana|Nulla|Rabuna|Urabuna|Urabunna|Urapuna|Urroban|Wangarabana|Wangarabuna|Wangarabunna|Wongkurapuna|Wongpurapuna|Wonkurabana|Yendakarang|Yendakarangu,Arabana language,68
y60-ayapathu,Ayapathu,Cape York & Torres Strait,-14.418513875449,143.23992472674,Ayabadhu|Abadja|Ai ebadu|Aiabadu|Aiyabotho|Aiyaboto|Ajabadha|Ajabatha|Ajibyrdu|Apatya|Badja|Baldya|Balfja|Jabuda|Kikahiabilo|Koka Ai ebadu|Koko Aiebadu|Koko Badja|Koko Baldya|Koko Baltja,Ayabadhu language,69
a14-badimaya,Badimaya,Western Desert (WA),-28.593308271869,117.18532487362,Parti maya|Badimaia|Badimara|Barimaia|Nanakari|Patimara|Patimay|Baadeemaia|Badimala|Bardimaia|Bidungu|Padimaia|Padinaia|Parimaia|Waadal|Wallawe|WardalBadi maia|Yamadgee|Yamaji|Patimaya|Bardimaya|Badimay|Yamadyis|Wardal|Badimia,Badimaya language,70
e42-baiali,Baiali,SE Queensland,-23.643690744,150.88523677149,Bayali|Byellee|Bajali|Bayelle|Biele|Bieli|Byelle|Byellel|Orambul|Urambal,Bayali language,71
y63-1-barrow-point,Barrow Point,Cape York & Torres Strait,-14.475977159965,144.59443977457,Barrow Point language|Mutumui|Itu|Walmbaria|Basthom|Basthon|Baulam|Ebole|Eibole|Eipolin|Jugaiwatha|Karbungga|Mbambylmu|Mutumi|Njegudi|Ongwara|Mudumui,Barrow Point language,72
e56-biri,Biri,SE Queensland,-20.508100888934,147.98860736809,Birigaba|Biria|Wiri|Biragaba|Birri Gubba|Biriaba|Breeaba|Perembba|Perenbba|Biri dialect,Biri dialect,73
w24-burduna,Burduna,SW WA / Pilbara,-23.047941011966,115.11520770261,Purduna|Boordoona|Buruna|Budina|Budoona|Buduna|Peedona|Pinneegooroo|Poodena|Poordoona|Puduna|Purduma|Wati Paruna|Bootena|Wati Puruna,Burduna language,74
s59-dharawal-tharawal,Dharawal / Tharawal,SE Australia,-34.565765331679,150.67940742247,Thurawal|Wodiwodi|Dariwal|Gujangal|Guyangal|Dharawa|Thurrawal|Turuwul|Turrubul|Turuwull|Turawal|Dharawal|Darawal|Mathews|Carawal|Thurrawall|Turu wal|Ta ga ry|Tharawal,Dharawal language,75
l17-dieri,Dieri,Lake Eyre / Central SA,-28.228091015572,139.05841514417,Diyari|Tirari|Diari|Diyeri|Dieyerie|Deerie|Dieyrie|Dthee eri|Dayerrie|Dickeri|Kunari|Koonarie|Wongkadieri|Wonkadieri|Ti:ari|Urrominna,Diyari language,76
e67-gathang,Gathang,SE Queensland,-31.982636844749,152.41557945907,Gadjang|Kattang|Worimi|Gadhang|Gadang|Molo|Bahree|Karrapath|Carapath|Warrangine|Wannungine|Birrbay|Warrimay,Gathang language,77
k20-gija-kija,Gija / Kija,Kimberley (WA),-17.423987204478,127.39105081828,Kitja|Lunga|Lungga|Gidja|Kuluwarrang|Walgi|Djarak|Djerag|Gidj|Gidya|Guidj|Guwidji|Gwidji|Keha|Kidja|Kiej|Kisah|Kisha|Kityu|Kutji|Kuitj|Kuitji|Kutnalawaru|Kwitj|Langgu|Longga|Loonga|Lungar|Lungu|Miwa|Paljarri|Tjarak|Walki|Waringari|WarrangariGidya|Warrangari|Kija|Gija,Gija language,78
n226-giyug,Giyug,Top End & Arnhem (NT),-13.16822762497,130.05352055453,,Giyug language,79
n75-gurr-goni,Gurr-goni,Top End & Arnhem (NT),-12.228413134459,134.28670643143,Gungorrogone|Gudjartabiyi|Guragone|Gungurugoni|Gungorogone|Gorogone|Gungarawoni|Gungoragone|Gungoro:lgo:ngi|Gungurulgungi|Gutjertabia|Gurugoni|Gungoragoni|Gungorragonni,Gurr-Goni language,80
l3-kaurna,Kaurna,Lake Eyre / Central SA,-34.427147187684,138.40846624591,Nantuwara|Coorna|Gaurna|Jaitjawar:a|Karnuwarra|Kaura|Koornawarra|Kurumidlanta|Medaindi|Medaindie|Meljurna|Merelde|Merildekald|Meyu|Midlanta|Milipitingara|Nantuwaru|Nganawara|Padnaindi|Padnayndie|Wakanuwan|Warra|Warrah|Widninga|Winaini|Winnaynie,Kaurna language,81
c13-kaytetye,Kaytetye,Central Desert,-21.019874087248,134.06950250849,Kaytetj|Kayteye|Kaytej|Gaidij|Kaititja|Gaididj|Kadda kie|Kaitidji|Kaitije|Kaitiji|Kaitish|Kaititj|Kaititje|Kat tit ya|Kat titch a|Katitch a|Katitja|Katitya|Kaiditj|Keytetye,Kaytetye language,82
y85-koko-bera,Koko Bera,Cape York & Torres Strait,-15.634918096202,141.62061855735,Kok Kaber|Gugubera|Kokopera|Anavilla|Ba:bung|Badedj|Bera|Berang|Gogo Bera|Gonani:n|Goonamen|Goonamin|Goonamon|Goonanin|Gumani|Gunami|Gunani|Gunanni|Kok Per|Koko babung|Koko Peryn|Kokopapun|Kokopapung|Konanin|Kukaberra|Kungkara|Nanna|Ninnggora|Paperyn|Papung|Peryn|Wab|Kok Kaper|Kongarrlh,Koko-Bera language,83
g33-kurtjar,Kurtjar,Gulf Country,-16.747297706702,141.41755236567,Gunggara|Gurdjar|Kunggara|Araba|Areba|Rib|Cudjeral|Curjur|Goom gharra|Koonkurri|Kortyera|Kuritjari|Kutjar|Ungorri|Kurrtjar,Gurdjar language,84
n112-marra,Marra,Top End & Arnhem (NT),-15.041258414509,135.41162976555,Marranbala|Mara|Warndarang|Leelalwarra|Leelawarra|Mala|Walkonda|Maarra,Marra language,85
n45-marrku,Marrku,Top End & Arnhem (NT),-11.157663294781,132.56024002888,Marrgu|Terrutong|Yaako|Raffles Bay language|Croker Island language|Margu|Iwaidja|Marlgu|Adawuli|Djalakuru|Gaari|Garrig|Jaako|Jiwadza|Oitbi|Uruku|Wurango|Ajokoot|Mago|Margo|Terutong|Yako,Marrgu language,86
g24-mayi-kutuna,Mayi-kutuna,Gulf Country,-19.120824645906,139.89625021507,Mayaguduna|Maikudunu|Marago|Mayi Yali|Maigudina|Maigudung|Maikudung|Mayagudunu|Maygudan|Mygoodan|Maikudun|Mikoodoono|Mygoodano|Mayagoondoon|Mika doon|Mikoolun,Mayi-Kutuna language,87
n80-nakkara,Nakkara,Top End & Arnhem (NT),-12.0844571279,134.36422035541,Na kara|Gukariya|Nagara|Kokori|Kukkori|Nackara|Narkarrar|Ngara|Gukari,Nakkara language,88
l22-ngamini,Ngamini,Lake Eyre / Central SA,-26.94377210402,138.9611802331,Ngameni|Ominee|A:mini|Agamini|Agaminni|Ahminie|Ahminnie|Aumine|Aumini|Auminie|Awmani|Gnameni|Ngamani|Ngaminni|Ngnaminni|Uminnie|Aurnini,Ngamini language,89
n157-ngan-gi,Ngan'gi,Top End & Arnhem (NT),-14.228397404184,130.36426184923,Ngan|gi tjemerri|Nangikurrunggurr|Tyemeri|Nangityemeri|Ngan’gityemerri,Ngan'gi language,90
w38-ngarluma,Ngarluma,SW WA / Pilbara,-20.982239359049,117.55639763374,Kymurra|Ngaluma|Gnalluma|Gnalooma|Gnalouma|Jaburarra|Jaburrara ngarluma|Karira Ngaluma|Naluma|Ngalama|Ngallooma|Ngalluma|Ngalooma|Paljari|Qualluana,Ngarluma language,91
s69-ngarrindjeri,Ngarrindjeri,SE Australia,-35.758230670523,139.26910023753,Narrinyeri|Jarildukald|Meintangk|Pirtulun|Ramindjeri|Tanganukald|Warki|Alkaiyana|Koiyana|Kokkaiya|Korariga|Kororega|Kowrarega|Narrinjeri|Wathai yunu|Ngarinyeri|Narinyerrie|Narrinyerree|Narinjari|Yaralde,Ngarrindjeri language,92
g17-ngawun,Ngawun,Gulf Country,-19.802685135729,141.96286370505,Ngewin|Naungaun|Ngaon|Ngaun|Nounun|Nouun,Ngawun language,93
a61-nyangumarta,Nyangumarta,Western Desert (WA),-20.479420766843,122.02895891035,Njangumarta|Nyangumarda|Iparuka|Kundal|Ngolibardu|Ngurlipartu|Walyirli|Wanyarli|I:baruga|Ibarga|Ibargo|Ibarrga|Kularupulu|Nangamada|Nangamurda|Nangumada|Nangumarda|Nangumurdu|Ngapakarna|Ngapakoreilitja|Ngardungardu|Ngulipartu|Njadamarda|Njangamada|Njangamarda|Njangomada|Njangumada|Njangumarda|Njanjamarta|NungooMurdoo|Nyaumada|Nyangamada|Nyangumada|Nyangumata|Tjilakurukuru|Waljuli Njangamarda|Warmala|Ibarga/Ibarrga/Ibargo|Nyangumurtu,Nyangumarta language,94
g6-pitta-pitta,Pitta Pitta,Gulf Country,-22.628422569678,139.72474432995,Pitha Pitha|Karanja|Kungkalenja|Pitapita|Rakkaia|Ringaringa|Bida Bida|Bitta Bitta|Bittha Bittha|Narrinyeri|Paruru|Ramindjerar|Ramindjeri|Ramingara|Raminjeri|Raminyeri|Ramong|Rormear|Tarbanawalun|Wangkahicho|Wangkahichs|Wangkapit:a|Wirramu mejo|Bidha Bidha,Pitta Pitta language,95
y184-uradhi,Uradhi,Cape York & Torres Strait,-11.890596380931,142.15906978815,Anggamudi|Ankamuti|Atampaya|Bawtjathi|Lotiga|Nggamadi|Utangikwathiya|Utudhanamu,Uradhi language,96
a39-wajarri-wadjarri,Wajarri / Wadjarri,Western Desert (WA),-26.100230390262,116.99308252226,Watjarri|Bidungu|Irawadjari|Mulyara|Nokaan|Wadjari|Waiawonga|Baialdju|Batiga|Cheangwa|Dhauerngu|Iirrawadari|Jamadji|Kurduwonga|Kurduwongga|Maliara|Miliara|Miliarra|Pidong|Wadari|Wadarri|Wadgaree|Wadhari|Wadjeri|Wadyari|Waian|Waianwonga|Wajari|Wajeri|Wajjari|Wajjiri|Wanmala|Wardal|Watjari|Wodjeri|Yabbaroo|Yabbooroo|Yajeri|Yamadgee|Yamaidyi|Yamaji|Wadyarri|Witjari|Wajarri|Wadjarri,Wajarri language,97
e28-wakka-wakka,Wakka Wakka,SE Queensland,-26.451334117667,151.90302899292,Waga Waga|Wakawaka|Bujiebara|Dungibara|Dungidau|Garumga|Garumngar|Kaiabara|Enibura|Gowrburra|Koolaburra|Mungar|Nukunukubara|Wa|Wabar|Waa|Wacca Wacca|Wackar|Waka|Wakar|Wakka|Wakkar|Waku wuka|Wapa|Wilili|Wililililee|Willillee|Woga|Wogga|Wokka|Wokkari|Wuka Wuka|Wuli wuli|Wulili|Woka|Wakar/Wackar|Woka Woka,Wakka Wakka language,98
n25-warray,Warray,Top End & Arnhem (NT),-13.163241744303,131.25381620883,Waray|Awara|Parlamarnyin|Warai|Wolwonga|Arwur|Awarai|Awarra|Awarrai|Warei|Warrai|Wulwongga|Woolwonga,Warray language,99
y134-warrgamay,Warrgamay,Cape York & Torres Strait,-18.43750867095,145.79793585959,Wargamay|Wargamaygan|Bandjin|Warakamai|Bungabara|Ieklbara|Waragamai|Waragumaigan|Waregamai|Warekumay|Warkama|Warkamai|Wargumay|Ikelbara,Warrgamay language,100
y53-wik-me-anh,Wik Me'anh,Cape York & Torres Strait,-14.011775495896,141.9278174492,Wik Menh|Wik Meanha|Wik|Wik Meanha/Wikmean|Wikatinda|Wik Ompom|Wikampama|Wik Kalkan|Wik Ngathara|Wik Epa|Wikmean|Wiknatanja|Mimungkum|Wik Mungkana|Wiknantjara|Meian|Mejan|WikMeana|Wik Muinh|Wik Me enh,Wik-Me'nh language,101
c1-wirangu,Wirangu,Central Desert,-31.535987723207,133.5220740691,Hilleri|Jilbara|Naljara|Ngoleiadjara|Nonga|Tidni|Tidnie|Titnie|Wanbiri|Wangon|Warrangoo|Willeuroo|Windakan|Wirangga|Wirongu|Wirrongu|Wirrung|Wirrunga|Yilrea|Weerung|Wanggan|Yulbara|Julbari Wonnga|Yulbara wonga|Ulbarara|Youlbara|Willuro|Wilyaru|Kartawongulta|Nhangga|Hillery|Illarie|Ngadha Wangga|Ngadhu wangga|Warna biri|Wambira,Wirangu language,102
n37-wurrugu,Wurrugu,Top End & Arnhem (NT),-11.36143458276,132.09312361872,Popham Bay language|Iyi|Limpapiu|Wurango|Iji|Jarle|Lyi|Urugu|Warange|Warragu|Warrka|Warrooka|Wurengo|Wurruga|Yarlo|Wurangu|Wurrunga|Wurrango|Wuruku|Uruku|Auwul warwak|Wareidbug|Woreidbug|Warooko|Jalo|Limba Karadjee,Wurrugu language,103
n153-yanyuwa,Yanyuwa,Top End & Arnhem (NT),-15.802081068674,136.807861124,Yanyula|Wadirri|Yanuwa|Janjula|Wadere|Walu|Wardiri|anjula|Aniula|Anula|Anuwa|Anyoola|Anyula|Anyuwa|Djirukurumbant|Iangkala|Leanawa|Leeanuwa|Njangga|Njangkala|Unalla|Yangala|Yanula|Yanular|Yuckamurri|Yuggamurra|Janyula|Leealowa|Leeanwa|Wadidi|Wadiri|Yanngula|Wadeira|Waderi|Yanguwa|Yuggamurra for Janjula|Waderi for Wadere,Yanyuwa language,104
k1-yawuru,Yawuru,Kimberley (WA),-17.943893293162,122.62530039144,Yawur|Djauor|Jauor|Jawuru|Yawoorroo|Gawor|Jaoro|Jauro|Jauur|Kakudu Kakudu|Nawudu|Yaora|Yaoro|Yaoru|Yaroro|Yauera|Yauor|Yauro|Yawuri|Yawurr,Yawuru language,105
w37-yindjibarndi,Yindjibarndi,SW WA / Pilbara,-21.737661452051,117.86817738925,Yinjtjiparnrti|Burnugundi|Indjibandi|Jaurnmalu|Mandanjingu|Binjiebandie|Een ge pan ty|Indjiban|Indjibandje|Indjibandji|Ingibandi|Injibandi|Jana:ri|Jindiparndi|Jindjaparndi|Jindjibandi|Jindjibandji|Jindjibanji|Jindjiparndi|Kakardi|Mandanjong|Mardanjungu|Yanari|Yingiebandie|Yinjibarndi|Jindjibarndi|Yinytjiparnti|Mandanjongo,Yinjibarndi language,106
w19-yingkarta,Yingkarta,SW WA / Pilbara,-24.945648783161,114.53581854353,Ingada|Yinggarda|Angardie|Ingara|Inparra|Jinggarda|Mandi|Manthi|Tedei|Thirrily|Angaardi|Angaardie|Ingadi|Ingarda|Ingarra|Ingarrah|Inggadi|Inggarda|Ingra|Jaburu|Kakarakala|Kurudandi|YinggardaAngardie,Yinggarda language,107
y132-agwamin,Agwamin,Cape York & Torres Strait,-17.675669954614,144.16680574351,Wamin|Ewamin|Wakamon|Wakara|Ak Waumin|Wommin|Waumin|Wawmin|Walamin|Wimanja|Egwamin|Gwamin|Walming|Wailoolo,Wamin language,108
y32-alngith,Alngith,Cape York & Torres Strait,-12.643632525571,141.92671899576,Alingid|Alngid|Alingit|Laynngith|Winduwinda|Lengiti|Lenngiti|Limrett,Alngith dialect,109
c14-alyawarr,Alyawarr,Central Desert,-21.94837099764,135.53444633563,Aljawarra|Alyawarre|Iliaura|Aliawara|Aliwara|Aljawara|Alyawara|Ilawara|Iliama|Iljauara|Iljawara|Illiaura|Illura|Illyowra|Ilyauarra|Ilyowra|Jajuwara|Yalyuwara|Iljaura|Ilyaurra|Ja:wara|Ilaurainya|Udnla|Ilyuarra|Alyawarra|Alyuwara|Illaura|Iloura|Ilyawara|Ilywara|Jaljuwara|Alyawerr|Alyawarri|Arandic,,110
c12-antekerrepenhe,Antekerrepenhe,Central Desert,-22.753908140735,137.62060389685,Antekerrepenh|Andegerebinha|Andegerebenha|Andakerebina|Undekerebina|Walwallie|Williwilli|Yanindo|Andagerebina|Antakiripina|Andeberegina|Arandic,Andegerebinha dialect,111
p3-broome-pearling-lugger-pidgin,Broome Pearling Lugger Pidgin,Pidgins & Creoles,-17.929955022136,122.29890057998,Broom Creole|Koepang Talk|Malay Talk|Japanese Pidgin English,Broome Pearling Lugger Pidgin,112
s53-dhurga,Dhurga,SE Australia,-35.619114492666,150.09470604586,Yuin|Djiringanj|Dyirringan|Thaua|Thawa|Walbanga|Wandandian|Thurga|Thoorga|Tindale|Wurm|Oates|Durga|Bugellimanji|Bargalia|Thauaira|Tharawal|Tadera manji|Guyanagal|Guyangal yuin|Murring|Katungal|Baianga|Paiendra|Paienbera,Dhurga language,113
k37-1-gajirrawoong,Gajirrawoong,Kimberley (WA),-15.293006956048,129.27469359968,Gajirrawung|Kimberley Area Languages|Gadjerawang|Kadjerong|Gadjerong|Gadyerong|Kadjerawang|Kadjeroen|Kadpjeroen|Kajirrawung|Gadyarawang|Gajerong|Ginmu|Kadjarong|Kujera Gajirrawoong  the Mirrawoong name for Gajirrabeng|Gajirrabeng|Kujera,Gajirrawoong dialect,114
k2-jugun,Jugun,Kimberley (WA),-17.786560192971,122.44504552718,Jukun|Dyugun|Djugun|Djurgun|Djukan|Jukan|Djugan|Tjugun|Tjukun|Djukun|Tjugan|Tjunung|Kularrabulu|Jukannganga,Djukun language,115
n22-malak-malak,Malak Malak,Top End & Arnhem (NT),-13.548773042487,130.55241427694,Mullukmulluk|Gamu|Junggor|Kamor|Madngela|Matngela|Ngulul Wanggar|Wooliana|Yunggor|Djiramo|Malack malack|Malag Malag|Mallackmallack|Mallak mallak|Mollak mollak|Mullik mullik|Mulukmuluk|Ngolak wonga|Ngolokwangga|Ngoluk wanggar|Ngulugwongga|Ngulukwongga|Nguluwongga|Valli valli|Mullu Mulluc|Ngolok Wangar|Ngululwanga|Ngulugwanga,Malak-Malak language,116
n215-marranj,Marranj,Top End & Arnhem (NT),-13.65277213493,130.0736750837,,Marranj language,117
g25-mayi-kulan,Mayi-kulan,Gulf Country,-18.780357582714,141.81241533473,Maykulan|Maikulan|Maigudina|Maigudung|Maigulung|Maikolon|Maikudun|Maikudung|Maikudunu|Maikulung|Makulu|Mayagoondoon|Mayagulan|Mayhulan|Miccoolin|Micoolan|Mikadoon|Mikkoolan|Mikoodoono|Mikoolun|Mycoolon|Mygoodan|Mygoodano|Mygoolan|Mykoolan|Mykulau,Mayi-Kulan language,118
g21-mbara,Mbara,Gulf Country,-19.849892873405,143.39513313755,Ambara|Mitjamba|Balgalu|Bargal,Mbara-Yanga language,119
y136-mbarrumbathama,Mbarrumbathama,Cape York & Torres Strait,-14.881623859293,143.83428327832,Lamalama|Mba Rumbathama|Bakanambia|Wanbara|Lamu Lamu|Jeteneru|Badjam|Baganambia|Been gee warra|Funggufan|Koko Lama Lama|Kookoymma|Kulamak|Rimanggudinhma|Rumbatama|Rumbathama,Lamalama language,120
n74-ndj-bbana,Ndjébbana,Top End & Arnhem (NT),-12.155548200634,134.27438255519,Gunavidji|Kunibidji/Gunavidji|Ndeya|Gidjiya|Djeebbana|Gunibidji|Kunibidji|Behribmej|Djapena|Gidjia|Djeepana|Grunavidji|Gudjia|Gunabidji|Gunabwidji|Gunadidji|Gunaviji|Gunawitji|Gunjibidji|Gurmadja madja|Jibidji|Kulunglutchyi|Witchi|Witji|Ndjéya|Gijiya,Ndjébbana language,121
a48-ngarla,Ngarla,Western Desert (WA),-23.799711855686,117.60738836527,Yinhawangka|Panytyima|Inawonga|Inawangga|Inawonga for Inawongga|Ngaunmardi|Nalawonga|Ngalawongga|Ngalawonga|Ngarla warngga|Southern Padima for Ninanu,Ngarla language,122
w40-ngarla,Ngarla,SW WA / Pilbara,-20.26323035168,119.70523345191,Kudjunguru|Ngurla|Bedengo|Bidungo|Bidungu|Gnalla|Nga:la|Ngaea|Ngalana|Ngerla|Ngirla|Ngoorla|Palatoj|Pardoo|Pedong|Peedona|Peedong|Pidungu|Wanbarda,Ngarla language,123
w30-nhuwala,Nhuwala,SW WA / Pilbara,-21.538836634658,115.686013235,Ngoala|Noala|Nornamaronga|Jawanmala|Noalla|Noanamaronga|Noella|Nooanamaronga|Nooanamarongo|Nooela|Nuala|Nuela|Nunkaberi|Nuwala,Nhuwala language,124
d12-paakantyi-paakantji-barkindji,Paakantyi / Paakantji / Barkindji,Darling (W NSW/SW Qld),-31.633175083239,142.77798606908,Paakantyi|Baagandji|Darling|Barkindji|Ba:gundji|Baagandyi|Bagandji|Bahkunji|Bahkunjy|Bahroongee|Bahroonjee|Bakandi|Bakandji|Bakanji|Bandjagal|Bandjangali|Bargunji|Barindji|Barinji|Barkinghi|Barkinjee|Barkinji|Barkungee|Barkunjee|Barongee|Baroongee|Barrengee|Barrongee|Barundji|Barundyi|Barunga|Barungi|Beriait|Berri ait|Bpaagkon jee|Bpaaroon jee|Bpaaroo|Bungyarlee|Burunga|Kaiela|Kornoo|Kurnu|Mailpurglu|Mil pulko|Ngunnhalgri|Pa:kindzi|Paakanji|Paakantji|Paakanytji|Pakindji|Parkengee|Parkingee|Parkungi|Parkunji|Paroinge|Paroo|Parooinge|Paru|Paruindi|Paruindji|Paruinji|Parundji|S|Baigundji|Unelgo|Wimbaja|Barkandji,Paakantyi language,125
y64-pakanh,Pakanh,Cape York & Torres Strait,-14.591437067426,142.34773011747,Bakanha|Ayabakan|u|Pakanha|Bakanh|Ajabakan|Ajabatha|Aiabakan|Aw Ayan|Baganu|Bakanu|Gugu Jan|Jan|Kokojan|Pakanhu|Yir Mayan|Uw Ayan,Pakanha language,126
y195-rimanggudinhma,Rimanggudinhma,Cape York & Torres Strait,-14.486837942064,143.78250985892,Rima nggudininhma|Mbariman Gudhinma|Barimangudinma|Port Stewart Lamalama|Parimankutinma,Mbariman-Gudhinma language,127
d24-southern-anaiwan,Southern Anaiwan,Darling (W NSW/SW Qld),-30.709868104953,151.3524683397,Nganjaywana|Aneewan|Aniwan|Inuwon|Nganyaywana|Anaiwan|Anewan|Amberu|Anaywan|Ee na won|En nee win|Eneewin|Enniwon|Enuin|Inuwen|Nee inuwon|Newana|Nowan|Yenniwon|Dariwan|Eenewon|Narwon|Inuwan,Anewan language,128
w26-thalanyji,Thalanyji,SW WA / Pilbara,-22.522885548089,114.94086402115,Thalantji|Dhalandji|Dalandji|Djalandji|Inikurdira|Jinigudira|Talandji|Yinikurtira|Dalaindji|Dalangi|Dalanjdji|Dalendi|Djalandi|Djalendi|Mulgarnu|Talaindji|Talainji|Talandi|Talangee|Talanjee|Talanji|Talinje|Tallainga|Tallainji|Taloinga|Thalanji|Jinigudera|Jinigura|Jiniguri|Jarungura,Thalanyji language,129
c16-wakaya,Wakaya,Central Desert,-20.152907594635,136.16914722059,Wagaya|Wakaja|Akaja|Arkiya|Lee wakya|Ukkia|Waagai|Waagi|Wagai|Wagaiau|Wagaja|Waggaia|Warkaia|Warkya|Wogaia|Woorkia|Worgai|Worgaia|Workaia|Workia|Worrkii|Wakkaja|Wuga|Wagaia|Workii,Wagaya language,130
y132-1-wamin,Wamin,Cape York & Torres Strait,-18.781422577031,144.1411973235,,Wamin language,131
c17-warlmanpa,Warlmanpa,Central Desert,-19.249626535773,132.87100726782,Walmanba|Wanmampa|Walmamba|Walmunba|Wanmanpa|Warlmanba|Walmala|Walmanpa|Walpiri|Albura|Alpira|Alpiri|Elpira|Ilpara|Ilpira|Ilpirra|Nam bulatji|Njambalatji|Ulperra|Wailbri|Walbiri|Walbrai|Wal bri|Waljbiri|Waljpiri|Walpari|Wanaeka|Wanajaga|Wanajaka|Wanajeka|Waneiga|Waringari|Warrabri|Wolperi|Wolpirra,Warlmanpa language,132
a62-warnman,Warnman,Western Desert (WA),-22.234788799669,123.05241114393,Wanman|Mardu|Budijarra|Gardujarra|Giyajarra|Kartudjara|Keiadjara|Mandjildjara|Manyjilyjarra|Potidjara|Nanidjara|Nenidjara|Njanidjara|Wanman Wanman|Wanmanba|Wanmin|Warumala,Warnman language,133
k10-warrwa,Warrwa,Kimberley (WA),-17.275981416455,124.01362597767,Kimberley Area Languages|Warwa|Kolaruma|Warrwai|Waruwa|Warwai,Warrwa language,134
d1-wemba-wemba,Wemba Wemba,Darling (W NSW/SW Qld),-35.341221572939,144.1419050467,Wamba Wamba|Womba|Weumba|Waamba|Yambayamba|Yamba|Wiembar|Moulmein dialect Moolamiin|Lake Boga dialect|The neighbourhood of Lake Boga|probably Moorebat|the Lower Loddon dialect|Kerang|Loddon R|Wamba|Waimbi waimbi|Wambo wambo|Waimbu Waimbu|Wemberwemba|Jambajamba|Gourrmjanyuk|Gorrmjanyuk,Wemba Wemba dialect,135
l18-yandruwandha,Yandruwandha,Lake Eyre / Central SA,-28.325841856362,140.39187764775,Yandruwanhdha|Thayipilthirringuda|Biralipa|Endawarra|Gandruwanda|Innamouka|Jandrawanda|Jandruwalda|Jandruwanda|Jandruwanta|Jandruwunta|Janduruwanda|Jendruwonta|Ngurunta|Yanderawantha|Yanderawartha|Yandra Wandra|Yandrawontha|Yandrinwantha|Yandruwanda|Yandruwanta|Yandruwonta|Yandruwunta|Yanduwulda|Yantowannta|Yantruwanta|Yantruwunta|Biraliba,Yandruwandha language,136
e11-yugambal,Yugambal,SE Queensland,-29.757441239373,151.05011430544,Yugambal: Ngarrabul|Ngarrbal|Ngarabal|Kwiambal|Jugambal|Jukambal|Jukambil|Marbul|Narbul|Ngarabul|Ngarrabul|Pregalgh|Ucumble|Ukumbil|Yacambal|Yirimbil|Yoocomble|Yoocumbill|Yookambul|Yookumbil|Yookumbill|Yookumble|Yookumbul|Yucomble|Yugarabul|Yugumbil|Yukambal|Yukambil|Yukumba|Yukumbil|Yukumbul|Yurimbil,Yugambal language,137
e23-yugara,Yugara,SE Queensland,-27.708545143454,152.54684067589,Yagara|Yuggera|Gowar|Jagara|Koenpul|Ngugi|Nunukul|Turrubul|Biriin|Djanda|Jagarabal|Jandai|Jergarbal|Jinibara|Nighi|Terabul|Torbul|Turibul|Turrbal|Turrubal|Turubul|Yackarabul|Yagarabal|Yagarabul|Yaggara|Yerongban|Yeronghan|Yerongpan|Yiniburra|Yugarabal|Yugg ari|Yuggara|Jagera|Ninghi|Quandamooka,Turrbal language,138
y183-atampaya,Atampaya,Cape York & Torres Strait,-11.584849294384,142.32873003712,Anggamudi|Ankamuti|Bawtjathi|Lotiga|Nggamadi|Uradhi|Utangikwathiya|Utudhanamu|Atambaya|Atambayag,Atampaya dialect,139
n31-batjamalh,Batjamalh,Top End & Arnhem (NT),-13.208840010675,130.27404035772,Wadjiginj|Wadjiginy|Wadyiginy|Patjtjamal|Wagait|Waggite|Wogait|Batjamal|Batjemal|Bajamala|Batyamal|Batymal|Wadjigin|Wadjingy|Wogatj|Wagaitj|Worgait|Worgite|Waggait|Waggote|Waggate|Wagatsch|Waogatsch|Wadjinginj|Waggites|Wargad|Wogadj|Worgaid|Worgaidj|Wogath|Wogaity|Wogite|Wogaidj|Wogait is a misnomer for Wadyiginy|Their langauge Wadyiginy|which has another sub dialect called Batyamal|Wadyiginy has several variant spellings|namely|Wdadjingi|Amijangal|Ami|Wagaidj|Wagite|Waggute|Murinwargad|Wagaydy,Wadjiginy language,140
w23-bayungu,Bayungu,SW WA / Pilbara,-23.20949389547,113.95209994077,Payungu|Baijungu|Binnigoora|Payu|Pinneegoora|Baijungo|Baiong|Baiung|Bajungu|Biong|Mulgarnoo|Paiunggu|Pajungu|Baiyungu,Bayungu language,141
a69-bunara,Bunara,Western Desert (WA),-20.709303855673,129.04645622792,Ngardi|Ngardilj|Ngarti|Waringari|Boonarra|Ngadi|Ngari|Ngati|Panara|Boonara|Waiangara|Kolo|Waiangari|Wain gara|Waiangadi|Warangari|Kukuruba|Woneiga|Wanayaga|Puruwantung|Buruwatung|Manggai|Munga|Walmala|Wommana,Ngardi language,142
n60-dalabon,Dalabon,Top End & Arnhem (NT),-13.316255495519,134.02930903644,Ngalkbun|Dangbon|Dalabon ?Gundangbon|Dangbon/Dalabon|Gundalabon|Dangbun|Ngalkbon|Ngalgbon|Ngalgbun|Ngalkbon consist of the word for “mouth? in the relevant language plus an element bon|Buan|Bu:wan|Boun|Naboo,Dalabon language,143
n192-dhangu,Dhangu,Top End & Arnhem (NT),-12.426984404463,136.60732559292,Dangu|Yirgala,Dhangu-Djangu language,144
n94-1-djinang,Djinang,Top End & Arnhem (NT),-12.33789405962,134.86349777477,Djinang dialects|Yolngu|Ritharngu|Daii|Diakui|Djinba|Jandjinung|Yandijinang|Yandjinung|Jinang|Jandji:nangc|Jandjinang|Yandjinning|Yandjinang|Djinnang|Djinhang|Milingimbi|Millingimbi|Wulllakki|Wulaki|Ullaki|Wulagi|Balmbi|Balmawi|Barlmawi|Manjarngi|Manyarrngi|Mun narngo|Manarrngu,Djinang language,145
n97-djinba,Djinba,Top End & Arnhem (NT),-12.761852777698,135.00458122839,Yolngu|Ritharngu|Daii|Diakui|Djinang|Jinba|Djimba|Outjanbah|Gunalbingu|Ganalbwingu|Kurkamarnapia,Djinba language,146
g31-gkuthaarn,Gkuthaarn,Gulf Country,-17.368816565828,141.11506220632,Kuthant|Karaldi|Gudanda|Gudhanda|Gudhand|Guandhar|Kareldi|Karundi|Karunti|Kurandi|Ka rantee|Karrandi|Karrandee|Gar und yih|Karun|Gooran|Kotanda|Kutanda|Goothanto,Gkuthaarn language,147
e32-gooreng-gooreng,Gooreng Gooreng,SE Queensland,-24.904800693499,151.79031501814,Gureng Gureng|Goeng|Koreng Goreng|Taribulung|Tulua|Corine|Curang Curang|Curang gurang|Goonine|Goorang Goorang|Gurang|Gurang Gurang|Kooranga|Koreng|Koreng Koreng|Korrengkorreng|Korrlup|Kuriny|Kurranga|Maroonee|Meeroni|Meerooni|Warangu|Yamma|YungkonoCaracterrup|Goreng Goreng|Gooranggorang|Gureng gureng Curang gurang,Taribelang language,148
e29-gubbi-gubbi,Gubbi Gubbi,SE Queensland,-26.005603296372,152.66753734609,Gabi Gabi|Dippil|Dallambara|Dowarbara|Dulingbara|Kabi Kabi|Nalbo|Undanbi|Cabbee|Cabee|Carby|Carby carbery|Dhapil|Dhipil|Dipple|Doon dooburra|Doondoora|Dowarburra|Dundu:ra|Dundubara|Gabi|Kabbi|Kabi|Kahby|Karabi|Karbi|Maiba,Gubbi Gubbi language,149
c20-gurindji,Gurindji,Central Desert,-17.462112816687,129.80759844339,Kuurrinjtji|Gurinji|Kartangarurru|Korindji|Kurintji|Malngin|Tjial|Wandjira|Coorinji|Corringi|Garundji|Goarango|Guirindji|Gurindzi|Gurrinji|Guurindji|Koorangie|Kooringee|Kwarandji|Kwaranjee|We arr ung,Gurindji language,150
k8-jabirr-jabirr,Jabirr Jabirr,Kimberley (WA),-17.23238856867,122.52741287823,Djabirr Djabirr|Dyaberdyaber|Djaba Djaba|Djaberadjabera|Djaberdjaber|Djaberadjaber|Djabirdjabir|Tjabartjabara|Tjabirtjabira|Tjabiratjabir,Jabirr Jabirr language,151
n33-kamu,Kamu,Top End & Arnhem (NT),-13.612558220435,130.77845772138,Malak Malak|Gamu/Kamor|Gamu|Junggor|Kamor|Madngela|Matngela|Mulluk Mulluk|Ngulul Wanggar|Wooliana|Yunggor|Gamor|Gamy|Kamorrkir|Komorrkir|Murra Kamangee|Ngangigmor,Kamu language,152
a64-karajarri,Karajarri,Western Desert (WA),-18.817369678434,122.32262142986,Karatjarri|Karadjeri|Garadjari|Karadjari|Garadare|Garadjara|Garadjeri|Garadyari|Garadyaria|Gardare|Karadhari|Karrajarra|Murgud|Nawurtu|Ngangu|Karatyarri|Kularupulu|Laradjeri|Minala|Nadja|Nadjanadja|Nangu|Naudu|Naurdu|Nawudu|Nawurungainj|Ngawadu,Garadjari language,153
c3-kokatha,Kokatha,Central Desert,-29.659445361412,133.41535731142,Kukatha|Kukarta|Kokata|Gugada|Cocotah|Cookutta|Geebera|Gogada|Gogoda|Gugadja|Kakarrura|Keibara|Kikataja|Kokatja|Kokit ta|Koocatho|Koogatho|Koogathoo|Koogurda|Kookata|Kookatha|Kotit ta|Ku:gurda wongga|Kugurda|Kukada|Kukata|Madutara|Maduwonga|Nganitjiddia|Nganitjidi|Nganitjini|Wanggamadu|Yallingarra|Kukatja|Matuntara|Kukataja|Yallingarra for Kokata|Aluna|Madun tara|Maiuladjara|Maiulatara for Matuntara,Kokatha dialect,154
y59-kugu-nganhcara,Kugu Nganhcara,Cape York & Torres Strait,-14.489781028133,141.7921889157,Kugu/Wik Nganhcara|Wikngenchera|Wik Ngandjara|Ngandjara|Wik|Wiknantjara|Wikatinda|Wik Ompom|Wikampama|Wik Kalkan|Wik Ngathara|Wik Epa|Wik Meanha|Wikmean|Wiknatanja|Mimungkum|Wik Mungkana|Nantjara|Ngantjeri|Wik Natjerra|Wik Ngencherra|Wik Nganhcara|Wik Ngantjera|Wiknantyara|Kugu Nganychara,Kugu Nganhcara language,155
g28-kukatj,Kukatj,Gulf Country,-18.132101457043,140.36511545041,Gugadj|Kalibamu|Marago|Gudadj|Gudadji|Gugady|Gugatj|Kokatj|Kukatji|Gugadji|Kukatja|Kukatyi|Konggada,Kukatj language,156
y84-kuku-thaypan,Kuku Thaypan,Cape York & Torres Strait,-14.660317992231,143.91433886368,Thaypan|AghuLaia|AkuLaia|Ambaram|Angandjan|Arlga|Awurangung|BarimanCutinma|Bariman Cudhinma|Barimangudinma|Barinangndinma|Barinman Guthinma|Cocobathan|Coo coo warra|Daiban|Gugu Dhayban|Jadeneni|Jeteneru|Jetieneru|Koko Laia|Kokowara|Koogabatha|Kookoobathy|Kuku Taipan|Laia|Ompindamo|Owynggan|Parimankutinma|Parinman Gutinma|Purangunuma|Taipan|Taypan|Wurangung|Yadaneru|Yananeru|Dhayban|Wu Laya|Laya|Awu Alaya|Awu-Laya|Gugu Thaypan,Gugu Thaypan language,157
w36-kurrama,Kurrama,SW WA / Pilbara,-22.345409300705,117.12525608201,Gurama|Janari|Jardira|Kerama|Korima|Gurrama|Jawunmara|Karama|Karima|Korama|Kurama|Yarnarri|Yinyjiwarnti Kurrama|Mijarranypa|Marntartka|Ngamangamara,Kurrama language,158
g38-lardil,Lardil,Gulf Country,-16.56431398137,139.45889134492,Lardiil|Layardilda|Damin|Demin|Gunana|Jungarl|Kare wa|Kunana|La:dil|Laierdila|Lardi:i|Lardill|Leedil|Nemarang,Lardil language,159
n163-magati-ke,Magati Ke,Top End & Arnhem (NT),-14.087643628892,129.71529902566,Magatige|Marti Ke|Marrithiyel|Matige|Brinken|Marri Ammu|Marridan|Marrisjefin|Magadige|Marri ge|Murrinh ge|Murrinh Ke|Muringair|Maritige|Muringata|Muringa|Muringe|Berinken|Berinkin|Berringin|Brinkan,Marti Ke language,160
w18-malgana,Malgana,SW WA / Pilbara,-26.366889692615,114.38349712828,Malkana|Buluguda|Daguda|Damala|Tamala|Madjana|Majanna|Maldjana|Malyana|Marlgana,Malgana language,161
n78-mangarrayi,Mangarrayi,Top End & Arnhem (NT),-14.891246591934,133.61915448548,Ngarrabadji|Mangarayi|Mungarai|Mangarai|Mangarei|Mangerei|Manggarai|Mungerry|Walooka|Mungari,Mangarrayi language,162
n16-maramanindji,Maramanindji,Top End & Arnhem (NT),-13.970566788139,130.41820390983,Marramaninyshi|Marramanindjdji|Marimanindji|Marramaninjsji|Akaja|Arkiya Dilik|Lee wakya|Mangikurungu|Maramanandji|Marimanindu|Maritjamiri|Murinmanindji|Murintjameri|Tjameri|Ukkia|Waagai|Waagi|Wagai|Wagaiau|Wagaja|Waggaia|Waggaja|Wakaja|Wakaya|Wakkaja|Warkaia|Warkya|Wogaia|Woorkia|Worgai|Worgaia|Workaia|Workia|Workii|Marekaganda|Dilik,Marimanindji language,163
n161-marri-tjevin,Marri Tjevin,Top End & Arnhem (NT),-13.892795770497,129.84905309975,Maridjabin|Marrisjefin|Marrijebin|Marisyabin|Marrityabin|Marri Jabin|Murindzabin|Murindjabin|Maretyabin|Murintja bin|Murintjaran,Marri Tjevin,164
n9-marridan,Marridan,Top End & Arnhem (NT),-13.9993372625,130.17682357301,Maridan|Marrithiyel|Brinken|Marri Ammu|Marrisjefin|Matige|Murindan|Nordanimin|Maredan,,165
y55-morrobolam,Morrobolam,Cape York & Torres Strait,-14.251907119434,143.5349595981,Morroba Lama|Umbuygamu|Kuuku yani|Barunguan|Yindyingga|Ajarumbal|Aradal|Bungkol|Burlngulu|Juwinbadha|Barungguan|Umpuykumu|Umbuykamu|Baka|Banjigam|Jintjingga|Yintjingga|Njindingga|Umbuigamu|Umbindhamu|Ganganda,Morrobolam language,166
a101-naaguja,Naaguja,Western Desert (WA),-28.135541101863,114.76447121893,Nowkadja|Nhanda,Nhanda language,167
l1-narungga,Narungga,Lake Eyre / Central SA,-34.481869129775,137.5910412494,Narangka|Narangga|Adjabdurah|Adjadura|Adjahdurah|Adjahdural|Moor in nunjie|Murinandji|Nanunga|Naranga|Narrang gu|Narrang u|Narranga|Narrangga|Narunga|Narrunga|Turra,Narungga language,168
n77-ngalakgan,Ngalakgan,Top End & Arnhem (NT),-14.283992459345,134.27075294971,Ngalakan|Hongalla/Hongalla|Nala nalagen|Nalagen|Nalakan|Ngalagan|Ngalagkan|Ngalarkan|Ngulkpun|Nullakum|Nullakun|Nullikan|Nullikin|Ngalbon|Hongalla|Nallakum,Ngalakgan language,169
n90-ngandi,Ngandi,Top End & Arnhem (NT),-14.008594882317,134.90638889763,Ngundi|Nagandi|Nagandji|Nanda|Nandi|Ngalbon|Ngalgbun,Ngandi language,170
k18-ngarinyin,Ngarinyin,Kimberley (WA),-16.003849061029,126.00543286652,Ungarinjin|Guwij|Munumburru|Ngarinjin|Ngarnawu|Wilawila|Wolyamidi|Andedja|Andidja|Angarinjin|Arawari|Arkarinjindja|Arkarrinyinjia|Gular|Ingarinjindja|Kandjalngari|Marangana|Molyamidi|Narrinyina|Narrinyind|Narrinyindi|Ngaring ngyan|Ngerringun|Njingarinjanja|Ogarinyan|Oladjau|Ungarinin|Ungarinjen|Ungarinyin|Unggarinjin|Unjarinjin|Unnarinjin|Walmidi|Wangarinjinu|Warnarinjin|WolJamidi|Wulanggu|Unarinjin,Ngarinyin language,171
d22-ngiyampaa-ngempa,Ngiyampaa / Ngempa,Darling (W NSW/SW Qld),-31.270264244145,146.70455496219,Ngiyambaa|Ngiyampaa|Wangaaybuwan Ngiyambaa|Wailwan|Wongaibon|Waljwan|Weilwan|Ngemba|Wangaaypuwan|Gaiamba|Narran|Negunbah|Ngaiamba|Ngamba|Ngambar|Ngeumba|Ngeunbah|Ngiamba|Ngiemba|Ngiumba|Ngiyamba|Ngjamba|Ngjemba|Ngumbarr|Njemba|Noongaburrah|Nyamba|Ugumba|Ngempa,Ngiyampaa language,172
w14-nhanda-nanda,Nhanda / Nanda,SW WA / Pilbara,-26.724586274598,113.9743977381,Nhanta|Yinggarda|Eaw|Watjanti|An gaur die|Bulgulu|Buluguda|Daguda|Eau|Jau|Nandatharia|Nanta|Ngoogooja|Nunnagundee|Tamala|Watchandi|Watchandie|Watjandi|Yau|Yaw|Amangu|Wilunya|Nhanda|Nanda,Nhanda language,173
a58-nyamal,Nyamal,Western Desert (WA),-21.220189379259,120.02940899496,Pundju|Widagari|Witukari|Gnamo|Ibarga|Ibargo|Ibarrga|Namal|Namarl|Namel|Njalmal|Njamal|Njamarl|Njamat|Nyamarl|Nyamel|Pundju Njamal|Pundu Namal|Tjingkai Njamal|Wanbarda|Weedokarry|Weedookary|Widagaree|Wirdakarri,Nyamal language,174
k3-nyikina,Nyikina,Kimberley (WA),-18.259398938966,124.06084128792,Njigina|Nyigina|Dja:ba|Negena|Nigena|Njigana|Njigena|Njikena|Njikini|Nyegena|Nygina|Nyi gini|Tjaba|Wanji|Yeeda|Niggene,Nyigina language,175
l11-pirlatapa,Pirlatapa,Lake Eyre / Central SA,-29.839384635069,140.10042482577,Pilardapa|Biladapa|Pilatapa|Berluppa|Biladepa|Biladhaba|Billidapa|Jarikuna|Pidlatapa|Piladapa|Pilladapa|Pillatapa|Pilliapp|Pillitapa|Pulladapa|Yarrikuna|Biladaba|Bilatappa|Billatapa,Pirlatapa language,176
n73-rembarrnga,Rembarrnga,Top End & Arnhem (NT),-13.231028553937,134.45410813993,Rembarunga|Rembarnga|Rainbarngo|Rambarrnga|Ranjbarngo|Ranjbarngu|Reinbaranga|Rembaranga|Rembarn nga|Rembarrna|Rembarrngu|Rembranga|Rainbarno|Remberanga|Rambarrna|Maia:li|Maieli|Majali|Maielli,Rembarrnga language,177
n104-ritharr-u,Ritharrŋu,Top End & Arnhem (NT),-12.976187508954,135.39676575215,Ritharngu|Yakuy|Ritarungo|Yolngu|Daii|Diakui|Djinang|Djinba|Diagoi|Dijogoi|Diyaguyi|Ridarngo|Ridarngu|Ridarrngu|Ridharrngu|Ritaringo|Ritarngo|Ritarngu|Ritarnu|Rittarungo|Rittarungor|Rudarungo|Ritarrngu|Ridarno|Dhiyakuy|Djikai|Jikai|Tchikai|Dijogoi Ritarungo|Ritharingau|Buranad jini,Ritharrngu language,178
y50-umpithamu,Umpithamu,Cape York & Torres Strait,-14.035568345802,143.4488542875,Umbindhamu|Jeteneru|Ompindamo|Arummarbin|Dyrlwai|Janggulmbal|Janggurunggu|Yintjinggu|Barungguan|Umpinthamu|Barunguan|Baka|Banjigam|Jintjingga|Yintjingga|Njindingga|Umbuigamu|Ganganda,Umpithamu language,179
l27-wangkangurru,Wangkangurru,Lake Eyre / Central SA,-25.886268570244,137.18175850191,Arabana/Wangkangurru|Wangganguru|Wanggangurru|Wongkangurru|Gongaru|Kanguru|Ongkongura|Ongkonguru|Partama|Unganoora|Wanganguru|Wangganguri|Wangkanguru|Wingkungira|Wonganguru|Wongganguru|Wonggongaru|Wongkaguru|Wongkanguru|Wongkaooroo|Wongkongaru|Wongonooroo|Wonkagnurra|Wonkanguru|Wonkanooroo|Wonkaoora|Wonkaooroo|Wonkgongaru|Wonkongaru|Wonkongnuru|Wonkonguru|Wychinga,Wangkangurru dialect,180
n120-warndarrang,Warndarrang,Top End & Arnhem (NT),-15.042941824801,135.34506155056,Wuyarrawala|Wandarang|Mara|Warndarang|Andarang|Wandaran|Wandarrang|Wandarung|Wanderang|Wangarong,Warndarrang language,181
c18-warumungu,Warumungu,Central Desert,-19.602712664845,134.50518184842,Waramanga|Waramungu|Airamanga|Leenaranunga|Uriminga|Waramunga|Warimunga|Warramonga|Warramunga|Warrumunga|Wurmega|Warramanga|Warumunga|Warrmunga,Warumungu language,182
y49-wik-elken,Wik Elken,Cape York & Torres Strait,-13.717382138225,141.59952021128,wikalkan|Wik|Wik Kalkan|Wikatinda|Wik Ompom|Wikampama|Wik Ngathara|Wik Epa|Wik Meanha|Wikmean|Wiknatanja|Mimungkum|Wik Mungkana|Wiknantjara|Galban|Algan|Wik Alkanha|Wik ngatara|Wik kalkin|Wik natara|Ngadara|Wik-Ngatharr,Wik-Ngatharr dialect,183
y54-wik-ngathan,Wik Ngathan,Cape York & Torres Strait,-14.06433130698,141.64786886677,Wik linjtjenj|Ngaduna|Wik ngatona|Wik Iinychanya,Wik-Ngathan language,184
s36-woiwurrung,Woiwurrung,SE Australia,-37.742203254355,145.29321753758,Wuy wurrung|Woiworung|Wurundjeri|Coolies|Coraloon|Djadjuwuru|Gungung willam|Gunungwillam|Kukuruk|Kurunjang|Mort Noular|Ngarukwillam|Nuthergalla|Oorongie|Oorongir|Urunjeri|Waarengbadawa|Wainworra|Wairwaioo|Warerong|Warorong|Warwaroo|Wavoorong|Wawoo rong|Wawurong|Wawurrong|Wciwurru|Woeewoorong|Woeewoorung|Woeworung|Woiwurong|Woiwurra|Woiwurrong|Woiwurru|Woiwuru|Woiwurung|Wooeewoorong|Wowerong|Wurrundyirra baluk|Wurrunjeri|Wurunjeri|Wurunjerri|Wurunjerri baluk|Yarra Yarra|Dutigalla|Dutagall|Worworong|Wave ver rong|Waverong|Waverang|Waworong|Wavorong|Wavarong|Wavererong|Wawarong|Waoorong|Melbourne dialect|Douta Galla|Wooworong|Warworong|Wowoorong|Waworung|Woovoorong|Wayoerong|Woeworong|Wawaurrong|Port Phillip blacks|Woeywurong|Woe wurung|Woey wurung|Wawroonong|Woeworun|Kukeruk|Warweroo|Woewurong|Wauerong|Woororong|Woe wu rrong|Waewarung|Yarra Yarra Coolies|Yarra,Woiwurrung language,185
e89-wulli-wulli,Wulli Wulli,SE Queensland,-25.303334466772,150.63558459481,Wuli Wuli|Wulili|Wilili|Wililililee|Willillee,Wulli Wulli dialect,186
g8-yalarnnga,Yalarnnga,Gulf Country,-21.82184420257,139.71327081736,Yalarrnga|Jalanga|Jalannga|Wonganja|Yalannga|Yelina|Yellanga|Yellunga|Yallunga|Jalarnnga,Yalarnnga language,187
e10-yaygirr,Yaygirr,SE Queensland,-29.686722970453,153.18784362556,Kumbainggar|Gumbainggir|Jiegera/Yaygir|Baanbay|Banbai|Gamlamang|Jiegera|Kumbainggiri|Yaygir|Yuungay|Jeigir|Ji:gara|Jireigir|Jungai|Yaegl|Yegera|Yegir|Yiegera|Youngai,Yaygir language,188
y72-yir-yoront,Yir Yoront,Cape York & Torres Strait,-15.125737544726,141.712047029,Yirr Yorront|Yirr Thutjim|Cape York Peninsula Languages|Jir Joront|Dangedl|Dhanuun|Djudjan|Dudjym|Gorminag|Gwandera|JirJorond|Jir djudjam|Jir Jirond|Jirmel|Koka mungin|Koko manjoen|KokoMandjoen|Kokomindjan|Kokomindjen|KokoMindjin|Kokominjan|KokoMinjen|Mandjoen|Mel Jir|Millera|Mindjana|Mindjen|Mindjin|Mundjun|Mynduno|NgambaWandh|YirThangedl|Yir yiront|Yir Yorond|Yirmel|Yirtangettle|Yirtutiym|Kuuk Thawvnhon|Koko Minychéna|YirrqYorront|Yirrq Thuch|Kok Minychéna,Yir-Yoront language,189
e17-yugambeh,Yugambeh,SE Queensland,-28.09452768919,152.98125597436,Yugumbir|Yugambal|Chepara|Chipara|Cudgingberry|Gando Minjang|Gandowal|Gendo|Gindobal|Goodjingburra|Jugambal|Jugambeir|Jugumbir|Jukam|Jukamba|Jukambe|Manaldja:li|Minjambuta|Minjangbal|Minjungbal|Minyambuta|Minyowa|Minyung|Mogul lumbitch|Ngandowul|Tjapera|Tjipara|Yögum|Yoocum|Yoocumbah|Yugambir|Yuggum|Yugimbir|Yukambe|Yukum|Yukumbir|Yugumbal|Yugumbee|Gurgun Mibinyah,Yugambeh language,190
g34-yukulta-ganggalidda,Yukulta / Ganggalidda,Gulf Country,-17.341231808393,138.7513171226,Lardil|Yakula|Jugul|Jugulda|Jogula|Jokala|Jokul|Jokal|Iukala|Yukula|Yookala|Eugoola|Jungulda|Kanggaleida|Yangarella|Engarilla|Yukulta|Ganggalidda,Yukulta language,191
y20-anguthimri,Anguthimri,Cape York & Torres Strait,-12.377732483631,141.83609416592,Adumakwithi|Baatjana|Bakwithi|Bwinitanikwithi|Jupangati|Lwipanadjini|Wimaranga|Anggadimi|Angudimi|Angutimi|Gautundi|Mbadjana|Mbahjana|Mbakudi|Mbugudi|Mpakwithi|Rakudi|Yupngayth|Awngthim|Yuupngati|Yupangati|Yupungati|Yupnget|Yupun gatti|Yopngadi|Nggerikudi|Nggirikudi|Ngerikudi|Nigger ikudi|Angadimi|Batjana|Mbatyana|Ba:tyana|Wimarangga|Wimarango|Wimmarango,Anguthimri language,192
c8-1-anmatyerr,Anmatyerr,Central Desert,-22.254652760404,133.2622529012,Anmatjirra|Anmatyerre|Anmatjera|Unmatjera|Imatjera|Urmitchee|Anmadjara|Anmatjere|Anmajirra|Nmatjera|Anmatjara|Janmadjara|Janmadjari|Janmatjiri|Yanmedjara|Yanmadjari|Arandic,,193
y107-areba,Areba,Cape York & Torres Strait,-17.0096271893,142.2228132259,Rip|Ngarap|Kurtjar|Araba/Areba/Rib|Araba|Kunggara|Rib|A:rap|Ariba|Aripa|Goodarra|Goongarra|Ngariba|Ngarab,,194
a53-banyjima,Banyjima,Western Desert (WA),-22.743132667405,118.37300319665,Panyjima|Panjtjima|Panytyima|Banjima|Bandjima|Mandanjongo|Papupadu|BanjimaBanyjima|Mandara|Paanjima|Pandima|Pandjima|Panjima|PanyjimaBanydyima,Panyjima language,195
d26-barranbinya,Barranbinya,Darling (W NSW/SW Qld),-29.780229344439,146.26865590139,Barranbinja|Baranbinja|Barren binya|Barrumbinya|Barrunbarga|Burrabinya|Burranbinga|Burranbinya|Burrumbinya|Burrunbinya|Parran binye|Barabinja|Baranbinya,Barranbinja language,196
l43-bidjara,Bidjara,Lake Eyre / Central SA,-28.385675168414,143.00552589241,Ngura|Kullilla|Bitjara|Galali|Kalali|Minkabari|Bithara|Pitteroo|Wilya|Bidyara,,197
e37-bidjara-bidyara,Bidjara / Bidyara,SE Queensland,-24.903186585911,147.12130691422,Pitjara|Bidjera|Bithara|Bitjara|Minkabari|Peachera|Peechera|Pitteroo|Wilya|Bitharra|Bidyara|Bidjara,,198
w34-binigura-pinikura,Binigura / Pinikura,SW WA / Pilbara,-23.030559062165,116.37279498494,Pinigura|Binnigoora|Pinneegoora|Biniguru|Binnigora|Binniguru|Pinikurra|Binigura|Pinikura,Pinikura language,199
e6-dhanggati-dunghutti,Dhanggati / Dunghutti,SE Queensland,-30.906415451433,152.41692271761,Dunghutti|Dhanggatti|Djan gadi|Thangatti|Dyangadi|Dainggatti|Dainggati|Dhan gadi|Ngaku|Thungutti|Dangadi|Danggetti|Dhangatty|Thangatty|Dangati|Tangetti|Burgadi|Boorkutti|Dhanggadi|da?ati|Dunggudi|Thungatti|Djaingadi|Danghetti|Danggadi|Yuungai|Yunggai|Tang gette|Burugardi|Nulla Nulla|Amberu|Himberrong|Jang|Yung|Dhunggutti|Dhunghutti|Dhanggati,Dhanggati language,200
n55-erre,Erre,Top End & Arnhem (NT),-12.42608346237,133.0652285137,Rereri|Erei|Eri|Arra,,201
y61-flinders-island,Flinders Island,Cape York & Torres Strait,-14.275587766419,144.38891558612,Oko Wurriima|Mutumui|Walmbaria|Itu|Ambydher|Kokomiabilo|Mairughan|Manpirlmung wa|Mbambylmu|Mbyrlmurl|Miabilo|Pipon Island|Wurima|Walmbar|Yalnga bar,Flinders Island language,202
k39-gambera,Gambera,Kimberley (WA),-14.218114153615,126.34246111367,Gamberre|Gambre|Kambure|Barurungari|Gamgre|Guwan|Kambera|Kamberange|Kambumiri|Kanbre|Purungari|Gambere|Kambre|Kularri/Gularri south westerners,,203
g29-gundara,Gundara,Gulf Country,-16.052434788806,141.81558838085,Kok Narr|Kok Nhang|Kundar|Koknar|Gog nar|Kwantar|Kokinari|Koko Nar|Koko Nari|Kuk Nar|Kuku Nar|Kwanthar|Gugu Nar|Gugu Nhang|Kwantari|Kundara|Kuantari|Goondarra|Wangara|Wanggara|Kokowanggara|Kokawan gar|Kokatabul|Kokodaue|Koko daua|Oikand,Kok-Nar language,204
n14-gungarakayn,Gungarakayn,Top End & Arnhem (NT),-13.233269244543,130.82520898536,Gungarakanj|Kungarakany|Cunerakan|Gundrakan|Gunerakan|Kangarraga|Kangarranga|Kumerakainj|Kungarakan|Ungnakan|Warnunger|Gungaraganj|Gungaragany|Koongurrukuñ,Kungarakany language,205
c23-gunindirri,Gunindirri,Central Desert,-17.669227805119,136.84465216971,Gunindiri|Kunindiri|Cundundeerie|Goonanderry|Kunandra|Kundindiri|Leecundunderrie|Gundirri|Kunindirri|Leecundundeerie,Gunindiri language,206
g14-indjilandji,Indjilandji,Gulf Country,-19.327052066917,137.46237684602,Yindjilandji|Inchalachee|Inchalanchee|Indjilindji|Indjurandji|Indkilindji|Injilinji|Intjilatja|Indjilinji|Indilandji|Gulbilangu|Inchalanchi|Indjiladji|Injeelanjee|Intyilatya|Intjilantji|Inchilachee|Indjillnji|Yinjilanji,Yindjilandji,207
w33-jurruru,Jurruru,SW WA / Pilbara,-23.232021787684,116.90722179422,Tjurruru|Churoro|Djuroro|Joruro|Tchuraru|Tjuroro|Yankurangku|Choororo|Chooraroo|Djururu|Tjororo|Tjururu|Tjururo|Djururo,Jurruru language,208
a2-kalarku,Kalarku,Western Desert (WA),-32.110217754506,121.4875755408,Kalaaku|Kalarko|Ngatjunmay|Galagu/Kalako|Malpa|Galagu|Kalako|Ngadjunmaia|Marlba|Beelia|Beeloo|Derbal|Ilakuri wongi|Juadjag|Juadjek|Juadjuk|Kalaako|Karakata|Karrakatta|Malba|Minal njunga|Minnal Yungar|Mooro|Murram|Njindango|Takalako|Wadjug|Wadjuk|Wadjup|Wajuk|Whadjuk|Whajook|Witja:ri|Yooadda|Yooard|Yoongar|Yuard|Yuatjek|Yungar|Yungur|Galaagu|West Mirniny,Galaagu language,209
a68-kukatja,Kukatja,Western Desert (WA),-20.489447500567,127.02387041488,Gugadja|Kokatja|Gogada|Gogadja|Gogadya|Gogoda|Gogodja|Gugada|Gugadji|Gugudja|Kokata|Koonggada|Kukacha|Kukada|Kukadja|Kukaja|Kukata|Kukatji|Kukuruba|Pardoo|Julbaritja|Julbre|Ilbaridja|Nambulatji|Bedengo|Bidong|Bidungo|Peedona|Peedong|Pidung|Pidunga|Manggai|Wangkatjunga|Wangatjunga|Wangatunga|Wangkatunga|Wangkadjungga|Wankutjunga|Wanaeka|Wangu|Panara|Bunara|Boonara,,210
y80-kuku-warra,Kuku-warra,Cape York & Torres Strait,-15.09403240678,144.61226111231,"Kuku Wara|Gugu Warra|Kokowarra|Coo coo warra|Jaram|KokoWara|Kookowara|""Lama Deighton Tribe""|Wara|Wijaram|Gugu Wara|Laia|Aghu Laia|Kookawarra|Coo oo warra|Laura Deighton tribe for Kokowara|Koko Laia|Coo coo warra for Laia",Gugu Warra language,211
n69-kunbarlang,Kunbarlang,Top End & Arnhem (NT),-11.932246158271,133.89389112265,Gunbarlang|Gunbalang|Gambalanga|Walang|Gambalang|Geimbio|Gimbarlang|Gunbalag|Gunbalong|Gunbulan|Gurmadja madja|Warlang|Gunba:lan,Gunbarlang language,212
y200-kuuk-yak,Kuuk Yak,Cape York & Torres Strait,-14.877183523042,141.7315652832,Yak|Kuuku Yak|Koko Yak,Kuuk Yak language,213
n42-limilngan,Limilngan,Top End & Arnhem (NT),-12.525601826077,131.72401076624,Limit|Minitja|Beriguruk|Djowei|Lemil|Minidja|naWinjmil|Norweilemil|Baneidja|Banidja|Banindja|Buneidja|Buneidya|Manidya|Minnitji|Peneitja|Punaka|Puneitja|Punuurlu|Manidja|Menassie|Buneitja,Limilngan language,214
y26-linngithigh,Linngithigh,Cape York & Torres Strait,-13.172965673585,141.82185453195,Leningitij|Winda Winda|Linginiti|Adetingiti|Andyinit|Ndraangit|Cabati|Ladamngid|Latangeti|Latarngit|Leiningidi|Leningiti|Lenngeti|Lenngidgh|Lingitir|Linngithig|Linngiti|Onnatangnit|Umngnity|Winduwinda|Laini ngitti|not the same as Lengiti of Weipa|Leningit,Linngithigh dialect,215
a65-mangala,Mangala,Western Desert (WA),-19.639949066406,123.96774721505,Mangarla|Djualin|Djuwali|Djuwalia|Jiwali|Koalgurdi|Manala|Mangai|Mangal|Mangula|Mangunda|Minala|Mungala|Yalmbau,Mangarla language,216
d42-margany-mardigan,Margany / Mardigan,Darling (W NSW/SW Qld),-27.2729476198,144.57741054857,Marrganj|Maranganji|Maranj|Marganj|Marnganji|Marukanji|Murgoan|Murgoin|Murngain|Marngany|Margany|Mardigan,,217
n164-mariyedi,Mariyedi,Top End & Arnhem (NT),-13.721021641961,130.05130789713,Marijedi|Murijadi|Marijadi,,218
n102-marri-ngarr,Marri Ngarr,Top End & Arnhem (NT),-14.210694183312,129.85072627138,Maringarr|Maringar|Gidjingali|Marengar|Marringar|Merringar|Moil|Moyle|Muringa|Muringar|Murrinnga|Tangural|Yaghanin|Ngangikadre,,219
n12-matngala,Matngala,Top End & Arnhem (NT),-13.788621330341,130.43364625547,Matngele|Madngele|Malak Malak|Madngela/Matngela|Gamu|Junggor|Kamor|Madngela|Matngela|Mulluk Mulluk|Ngulul Wanggar|Wooliana|Yunggor|Maangella|Madngala|Madngella|Mandella|Matngelli|Muttangulla|Nundjulbi|Warat|Amadil|Muttangella|Ngengiwerat,Matngala language,220
e21-moondjan,Moondjan,SE Queensland,-27.472157289981,153.46907862431,Moonjan|Yuggera|Nunukul|Gowar|Jagara|Koenpul|Ngugi|Turrubul|Yagara|Gundjun|Koko Kuntjan|Koko wansin|Kokoyan|Koonjan|Kundjan|Kundjin|Kunjen|Kunjin|Mundjan|Ngundjan|Noonuccal|Noonuckle|Noonukul|Nununkul|Okundjain|Nunungal|Quandamooka,Nunukul language,221
c25-mudburra,Mudburra,Central Desert,-17.440310056236,131.90962270153,Mudbura|Mutpura|Madbara|Moodburra|Mootburra|Mudbara|Mudbera|Mulpira|Mudbra|Mutburra|Mutpurra,Mudburra language,222
a3-ngadjumaya-ngadju,Ngadjumaya / Ngadju,Western Desert (WA),-32.324664323174,123.74119550948,Ngatjumaya|Ngadjunmaya|Ngatjunmay|Galagu|Kalako|Ngadjunmaia|Ba:donjunga|Bardojunga|Bardok|Buljigu|Malba|Marlba|Marlpa|Minninng|Ngadjumaja|Ngadjunma|Ngadjunpakara|Ngadjunpukara|Ngadyunma|Ngatju|Ngatjumay|Ngatjunmaya|Norseman|Pardoak|Tchaakalaaga|Wangka malpa|West Meening|West Mining|Ngadyumaya|Ngadjunma/Marlba|Ngadju:|Ngadjumaya,Ngadjunmaya language,223
s6-ngangaruku,Ngangaruku,SE Australia,-34.831537401429,139.45140032475,Meru|Nganguruku|Ngawait|Erawirungand|Rankbirit|Ngintait|Ngaralta|Ngaiawung|Nkanguru|Ngangurugu|Ngayawung,Ngaiawang language,224
d3-ngunawal-ngunnawal,Ngunawal / Ngunnawal,Darling (W NSW/SW Qld),-34.980295513415,149.0870951807,Gundungurra|Burragorang|Gurungada|Ngaonawal|Ngennigenwurro|Ngoonawal|Nungawal|Wonnawal|Yarr|Yiilima|Ngunnawal|Ngunawal,Ngunnawal–Gundungurra language,225
k9-nimanburru,Nimanburru,Kimberley (WA),-17.264739808971,123.13415808084,Nimanbur|Nimanburu|Nimanboorroo|Nimanbor|Nimanboro|Nimanboru|Ninambur|Ninamburu|Wadiabulu|Nimarnbur,Nimanburru language,226
n28-nungali,Nungali,Top End & Arnhem (NT),-15.590178428466,130.85709333183,Nungulu|Jilngali|Ilngali,Nungali language,227
d17-pantyikali,Pantyikali,Darling (W NSW/SW Qld),-30.49041055189,142.68465244475,Paakantyi|Bandjigali|Wanjiwalku|Bandjagali|Barkindji|Milya uppa|Barkinji|Barkinjee|Barkunjee|Bahkunji|Pakindji|Pa:kindzi|Bakandji|Bahkunjy|Barkinghi|Parkungi|Par kengee|Parkingee|Bakanji|Bakandi|Bargunji|Bagundji|Bagandji|Bpaagkon jee|Kurnu|Kkengee|Kornoo|Kaiela|Wimbaja|Bandjangali,Pantyikali dialect,228
s52-thawa,Thawa,SE Australia,-37.167132688332,149.59883330164,Yuin|Thaua/Thawa|Dhurga|Djiringanj|Dyirringan|Thaua|Walbanga|Wandandian|Baianga|Du:rga|Guyanagal|Guyangal yuin|Katungal|Murring|Paienbera|Paiendra|Tadera manji|Tadermanji|Taua|Tauaira|Tharawal|Thauaira|Thoorga|Thurga|Dhawa,Thawa language,229
n66-urningangk,Urningangk,Top End & Arnhem (NT),-12.5457157709,133.05649225086,Urningangg|Wuningangk|Uninganangk|Wata|Uningangg|Uningangk|Wuningak|Wuningag,,230
g23-waanyi,Waanyi,Gulf Country,-18.313241639387,137.6208706403,Waanji|Garawa|Wanyi|Wanyee|Wanee|Waangyee|Wonyee,Waanyi language,231
d4-wadi-wadi,Wadi Wadi,Darling (W NSW/SW Qld),-35.086643095474,143.37045705255,Wati Wati|Biangil|Dacournditch|Darty Darty|Nimp mam wern|Ta ta thi|Taa tatty|Tar tarthee|Tatatha|Tataty|Tatitati|Tunggut|Wathiwathi|Wattewatte|Watthiwatthi|Watty watty|Withaija|Woani|Wodiwodi|Wohdi Wohdi|Woonyi|Wotowotti|Wotti wotti|Wottowotti|Watte|Wotte Wotte|Ouotti Ouotti|Wathie Waithie|Wattee Wattee|Wathi Watthi|Wattu Wattu,Wadi Wadi dialect,232
g15-wakabunga,Wakabunga,Gulf Country,-19.538891965327,139.06481892321,Workoboongo|Kabikabi|Wagabunga|Waggaboonyah|Waggabundi|Wake bunge|Wakobungo|Waukaboonia|Workabunga|Wakapunga|Worgabunga|Wurgabunga,Wakabunga language,233
g10-waluwarra,Waluwarra,Gulf Country,-21.762186407649,138.42855736744,Warluwara|Warluwarra|Waluwara|Didjadidja|Elookera|Kapula|Maula|Maule|Mauula|Pangara|Panggara|Paringgara|Walgra|Wallawarra|Waloo kera|Walugara|Walugera|Walukara|Wlookera|Wolga|Wollegara|Wollegarra|Yannalinka|Yunnalinka|Warluwarra Bularnu,Warluwarra language,234
l25-wangkumara,Wangkumara,Lake Eyre / Central SA,-27.570485377228,141.8854183686,Ngura|Bundamara|Diraila|Jarumarra|Karendala|Kungatutji|Mamwura|Ngandangara|Ngurawola|Punthamara|Thiraila|Wankumara|Balpamadramadra|Jaramarala|Papagunu|Wanggamara|Wanggumara|Wankgumara|Wongkumara|Wonkamara|Wonkamarra|Wonkamura|Wonkamurra|Wonkomarra|Wonkubara|Modern Wangkumara,Wilson River language,235
n29-wuna,Wuna,Top End & Arnhem (NT),-12.475167242034,131.37297187474,Wulna|Woolna|Djerimanga|Beriguruk|Wolna|Woolner|Wulnar|Birrigarak|Berrigurruk|Berugurruk|Djeramanga|Jermangel|Waak|Woolnah|Woolner for Djerimanga|Perrigurruk|Eri|Erei|Rereri|Reveri for Beriguruk|Wunna,Wulna language,236
d7-yitha-yitha,Yitha Yitha,Darling (W NSW/SW Qld),-33.873186078177,143.94091280464,Jitu Jitu|Yida Yida|Bayangil|Eetha Eetha|Eethanaeetha|Eethee Eethee|Eethie Eethie|i7a Yida|Ita ita|Itaiithi|Ithi ithi|Iti iti|Jida Jida|Jitajita|Tjuop|Yetho|Yit tha|Yitha|Yitsa|Yitayita,Yitha Yitha language,237
s19-yuyu,Yuyu,SE Australia,-34.098823177692,140.99932761004,Ngarrket|Narrinyeri|Jarijari|Jere jere|Juju|Nyerri nyerri|Yairy yairy|Yari yari|Yariki luk|Yarre yarre|Yarree Yarree|Yerre Yerre|Yerri yerri|Yerry yerry|YurraYurra|Erawirung|Jirau|Eraweerung|Eramwir rangu|Erawiruck|Jeraruk|Yerraruck|Yirau|Yiran|Pomp malkie|Meru|You you|Rankbirit|Wilu|Willoo,Yuyu language,238
y229-adithinngithigh,Adithinngithigh,Cape York & Torres Strait,-12.924228508861,141.71138792709,Adetingiti,Adithinngithigh language,239
y185-awngthim,Awngthim,Cape York & Torres Strait,-12.711537418648,141.82128787861,Mamngayt|Mamngayth|Winduwinda|Mamangathi|Mamangiti|Mamngaid,Awngthim language,240
s35-boonwurrung,Boonwurrung,SE Australia,-38.459569464285,145.57532287595,Bun wurrung|Bunorong|Barrabool|Boonerwrung|Boon oor rong|Boongerong|Boonoor ong|Boonurrong|Bunuron|Bunurong|Bunwurru|Bunwurung|Gippsland dialect|Putmaroo|Putnaroo|Thurung|Toturin|Boatnairo|Boatnarro|Bonurong|Bonnings|Boonnong|Boomerang|Port Phillip Aborigines|Bon gar rong|Bon ga rong|Boom ner wrong|Boomerong|Boonerong|Boong wer rong|Bounworong|Boonwoorong|Boonworong|Bonwarry|Westernport blacks|Boong|er|rong|ong|Bonwerong|Boormarong|Boonmerong|Bon worong|Boonmorong|Bon wrogon|Boonrong|Boongerang|Boon|ger|Boonurong|Bonwrong|Boungerong|Bournourong|Boongurong|Boonguerong|Boonwerung|Boonwerong|Boomeronge|Boon wurong|Boon wurung|Borawong|Bunoorong|Boonerang|Bunarong|Bunerong|Bunwurong|Bunwurra|Boonoorung|Boonworung|Boonwurrong|Bonourong|Bunerung|Boonooroong,Bunurong language,241
s13-bungandidj,Bungandidj,SE Australia,-37.225251721763,140.51174847592,Bungandik|Bundanditj|Buandig|Bunganditj|Bangandidj|Barconedeet|Boandik|Boandiks|Booandik|Booandik ngolo|Borandikngolo|Buandic|Bak on date|Buandik|Buanditj|Bungaditj|Bungandaetch|Bungandaetcha|Bungandaitj|Bungandidy|Bunganditjngolo|Bungandity|Burhwundeirtch|Drualat ngolonung|Mount Gambier dialect|Nguro|Pundandik|Pungandaitj|Pungandik|Pungantitj|Pungatitj|Boandic|Booandki ngolo|Bugandity|Booganity|Booganitch|Nguro people|Bungadidj,Bungandidj language,242
n38-dagoman,Dagoman,Top End & Arnhem (NT),-14.441000044493,131.87759795897,Wagiman|Tagoman|Airiman|Wagoman|Wogba|Togeman|Dogeman|Togiman,,243
s65-darkinyung,Darkinyung,SE Australia,-33.035117239172,150.82870492608,Darkinjung|Darkinung|Darkinjang|Darginyung|Darknung|Darkiñoong|Darkin nyoong|Darginjang,Darkinyung language,244
e46-darumbal,Darumbal,SE Queensland,-22.715683514461,150.06004560953,Darambal|Bayali|Jetimarala|Kooinmurburra|Ningebul|Taroombul|Warrabul|Yetimaralla|Dharumbal|Tharumbal|Darawal|Tarumbal|Tarumbul|Charumbul|Tarrombal|Tarambol|Tarm bal|Warabal|Warrabal|Ningebal|Rockhampton dialect|Bauwi warra,Darumbal language,245
s20-dhauwurd-wurrung,Dhauwurd Wurrung,SE Australia,-38.155612905976,141.53965852318,Kuurn Kopan Noot|Gournditch Mara|Gu:nditj mara|Dhautgart|wurru|Dhauwurd Wurung|Gundidjmara|Dhaurwurd Wurrung|Dhauhurtwurru|Gundidj|Gurndidjmara|Gurndidy|Gurnditjmara|Gurnditschmara|Kirurndit|Ku:nditjmara|Ngutuk|Nil can cone deets|Tourahonong|Weeritch Weeritch|Gurndidj|Dhauwurd wurrung as a dialect name  Dhauwurd wurrung|Dhauhurru|Thaguwurung|Tyaupurt wurung|Tyapurtwuru|Dhahurtwurru|Dhauwert woorong|Thauwertwoorong|Dauwert woorong|Dhauhwurru|Dhau urt wuru|Thaghurt wuru|Thagurtwurung|Ta ha hurrur|Dhauurdwuru language|Gurnditj,Dhauwurd Wurrung language,246
n118-dhay-yi,Dhay'yi,Top End & Arnhem (NT),-13.373647951611,135.76201216414,Dayi|Yolngu|Daii|Ritharngu|Diakui|Djinang|Djinba|Dai|Dhayi|Taii Tai|Dalwango|Dalwongo|Dalwongu|Darlwongo|Dhalwangu|Djawark|Djarlwa:g,,247
l14-dhirari,Dhirari,Lake Eyre / Central SA,-28.598289091556,137.77483818376,Dirari|Tirari|Dhirrari|Thirrari|Terari,,248
n198-dhuwal,Dhuwal,Top End & Arnhem (NT),-12.71246520501,136.00985748366,Dhuwal/Dhuwala|possibly also Dhuwaya|Duwal|Murngin|Wulamba|Balamumu|Barlamomo|Barlamumu|Malag|Marlark|Arrawiya|Banjarrpuma|Bilamandji Dhurili|Durilji,,249
s31-1-dja-dja-wurrung,Dja Dja Wurrung,SE Australia,-36.795610548766,143.67485285062,Jaja wurrung|Djadjawurung|Le Wurung|Jaara|Yaara|Yaura|Yayauring|Jajaurung|Jajowurrong|Jajowrung|Jajowerong|Jajowrong|Jajoworrong|Jurobaluk|Nirabaluk|Nirababaluk|Panyod|Knenknenwurro|Jajawong|Jargow er ong|Dadowong|Jar gow wer rong|Dardowrong|Dar dow|wer ong|Tatowrong|Tattowrong|Tellouurong|Jujourong|Jargowerang|Dardowerong|Dar|dower|ong|dow|wer|Dardowerang|Jarjoworong|Jajawerong|Jarjourong|Jajororung|Tar|tow|rong|not Jargowerong|Jargowrong|Jajourong|Jarjowrong|Jajaorog|Loddon blacks|Jajauwurung|Jajaiowrung|Jajawurung|Lowurrong|Jajauwurong|Jajiwrong|Jajowurung|Jajawrung|Jajaurong|Jajawrong|Jajauworung|Ja jow wurong|Jajauwong|Jajauwrong|Jajawerung|Ja jau|Jajow wurung|Jajowong|Lewurru|Tyeddyawurru|Tyeddyuwurru|Tyeddywurru|Tyeddyuwurung|Djudjawurung|Ya ya dyalli|Ya ya tyalli|Yajaurung|Jajowerang|Jajauwrung|Yayaurung|Jara|Jajoweroung|Djadjawurru|Djadjuwurru|Djadjuwuru|Djadjawuru|Djedawuru|Lewuru|Yeyowong|Yeyawong|Jajawurong|Jajaworung|Jarawurung|Yarrayowurro|Jajaorong|Jajowurong|Tjedjuwuru|Djendjuwuru|Jajaweroung|Jaara equates with Jajawurong|Yarra yowurro dialect|Jajoeroung|Jajaworrung|Jaja wurrong|Jajowurron|Jayawurron|Dja Dja Wrung|Da dow rong|Jarrung Jarrung|Tarrang|Tarra|Yabola|Monul gundeech|Monulgundeedh|Pilawin|Yang|Lunying birrwurrkgooditch,Djadjawurrung language,250
s26-djab-wurrung,Djab Wurrung,SE Australia,-37.774215035757,142.33662986865,Jab wurrung|Pirt Koopen Noot|Djabwurung|Tjapwurong|Dyabwurung|Tyapwurru|Chaapwurru|Pirtkopannoot|Purteetchally|Punoinjon|Kolor|Chaap Wuurong|Chaa wuurong|Tjapwurung|Tyapwuru|Djabwuru|Pirt kopen noot|Nutcheyong|Buninjon|Kolor Kuurndit|Kooloor|Kolorer|Girri wurra|Wonnin dialect|Bolakngat|Bolagher|Knindowurong,Djabwurrung language,251
y6-djagaraga,Djagaraga,Cape York & Torres Strait,-10.816265909483,142.52034159078,Yadhaigana|Gumakudin|Jadaikana|Ynduyamu|Yaraidyana|Yathaikeno|Dyagaraga|Yagulle|Gudang|Alauian|Unduamo|Undooyamo|Kekosino|Kekoseno|Kokiliga,Gudang language,252
s51-dyirringa,Dyirringañ,SE Australia,-36.693828821376,149.72159436095,Djirringanj|Yuin|Djiringanj/Dyirringan|Dhurga|Djiringanj|Thaua|Thawa|Walbanga|Wandandian|Dyirringany|Jiringayn|Jeringin,Dyirringany language,253
e15-galibal,Galibal,SE Queensland,-28.533264350058,152.86681397041,Galival|Kalibal|Moorung moobar|Murwillumbah|Githabul,Githabul language,254
e40-gangulu,Gangulu,SE Queensland,-24.186069748368,150.15143203191,Kaangooloo|Kangulu|Kanolu|Cangoolootha|Gangu|Kangalo|Kangool lo|Khangalu|Kongalu|Konguli|Kongulu|Khang|Ghangulu,,255
e14-gidhabal,Gidhabal,SE Queensland,-28.501057231671,152.32034553452,Githabul|Gidabal|Bandjalang|Kidabal|Kidjabal|Kita bool|Kittabool|Kitapul|Gidabul|Gidjoobal|Kuttibul|Noowidal,Githabul language,256
y191-gudang,Gudang,Cape York & Torres Strait,-10.867276299764,142.58789074767,Uradhi,Gudang language,257
y128-gugu-badhun,Gugu Badhun,Cape York & Torres Strait,-18.690340786321,145.23298721074,Gudjal|Guridjal|Kokopatun|Kutjala|Warungu|Badun|Breaba|Breeaba|Jullanku|Koko Padun|Koko Badun|Patun,,258
e35-gungabula,Gungabula,SE Queensland,-25.599573240252,148.64372520145,Kongabula|Gongabula|Khungabula|Khungabulal|Kungalburra|Ongabula,,259
d43-gunya,Gunya,Darling (W NSW/SW Qld),-26.784742672206,146.16134361506,Gunja|Kunja|Kunya|Kurnja,,260
e19-jandai,Jandai,SE Queensland,-27.772890083261,153.39910442668,Janday|Coobenpil|Djandai|Djandawal|Djendewal|Dsandai|Goenpul|Jendairwal|Jundai|Koenpal|Koenpel|Noogoon|Tchandi|Tschandi|Quandamooka,Janday language,261
n57-jawoyn,Jawoyn,Top End & Arnhem (NT),-13.897300406584,133.03846083302,Jawonj|Adowen|Gundjawan|Djauan|Djauwuny|Djawin|Charmong|Chau an|Djauun|Djauwung|Djawan|Djawanj|Djawun|Djouan|Djowan|Djowei|Jauan|Jawin|Juauan|Kumertuo|Lebryryd|Nggandindmi|Tjauen|Tjawen|Tjouen|Tweinbol|Wonborngu|Jawony,Jawoyn language,262
y44-kaanju-kaantju,Kaanju / Kaantju,Cape York & Torres Strait,-13.398096294576,142.97198330983,Cape York Peninsula Languages|Kanju|Kandju|Andjingid|Andyingid|Anjungitie|Candju|Gaanydyu|Gandanju|GandjuIo|Iju|Jaalo|Jabuda|Ka:antju|Ka:ndyu|Kaantyu|Kamdheu|Kamdhue|Kandyi|Kantanyu|Kantju|Kantyu|Kanyu|Karndheu|Karnju|Karntju|Karnu|Karnyu|Kokin oh|Ndhyrl|Neegulada|Wijamo|Yaldiye ho|Gaandju|Kaanytju|Gandju|Kaanju,,263
w39-kariyarra,Kariyarra,SW WA / Pilbara,-20.870804946752,118.4788128607,Kariera|Kudjunguru|Kariara|Gariera|Gariyarra|Kaierra|Karriara|Karriarra|Kyeara|Kyreara|Minjiburu|Minjirbururu|Minjubururu|Paljarri,,264
d33-kooma-guwamu,Kooma / Guwamu,Darling (W NSW/SW Qld),-28.414552287234,147.72491882974,Guwamu|Koamu|Culgoa|Goamu|Gowamu|Gruwamu|Guamu|Kaombal|Kuam|Kuamu|Oamu|Kooma,,265
s75-koornkopanoot,Koornkopanoot,SE Australia,-38.169915029948,142.32901973558,Gurngubanud|Kuurn kopan noot kuurndit|Kuurn kopan noot|Kurn kopan nut|Kourn kopan|Kaurnkopan|Gurngobanud|Dhauwurd Wurrung,Dhauwurd Wurrung language,266
y224-kugu-mu-inh,Kugu Mu'inh,Cape York & Torres Strait,-14.647499538351,141.63978294052,Kugu/Wik Muinh|Kuku Muinh|Wik Muin,,267
y43-kugu-muminh,Kugu Muminh,Cape York & Torres Strait,-14.420627894081,141.65098626409,Wik Muminh|Kugu/Wik Nganhcara|Kuku Muminh|Mumin,,268
y175-kugu-ugbanh,Kugu Ugbanh,Cape York & Torres Strait,-14.507990345832,141.63466440439,Kugu/Wik Ugbanh|Kuku Ugbanh,,269
y176-kugu-uwanh,Kugu Uwanh,Cape York & Torres Strait,-14.558867180771,141.6512973211,Kugu/Wik Uwanh|Kuku Uwanh|Gugu Uwanh,,270
y109-kuku-djangun-djungan,Kuku Djangun / Djungan,Cape York & Torres Strait,-17.105885018916,144.96879177775,Kuku|Djangun|Kuku yalanji|Djankun|Jungkurara|Kokojelandji|Kokokulunggur|Kokowalandja|Muluridji|Wakara|Wulpura|Kuku Jangkun|Djunggun|Djagun|Ngaikungu|Dyangun|Chungki|Dyangunbari|Djandnandi|Chunkunburra|Chunkunberry|Changunberries|Shanganburra|Kokotjangun|Kokomutju|Mutju|Ngaikungo|Ngaikungo i|Kuku Djangun|Djungan,,271
d30-kullilli,Kullilli,Darling (W NSW/SW Qld),-28.366143521316,143.53149314446,Galali|Ngura|Kullilla|Bitjara|Kalali|Minkabari|Garlali|Kalili|Kullali|Kullalli|Kullally|Karlali,Kalali language,272
y22-kuuku-ya-u,Kuuku Ya'u,Cape York & Torres Strait,-12.541741200854,143.03387401339,Pakadji|Gugu Yau|Guugu YauBagadji|Jao|Kao Kokoyao|Koka yao|Koko Ya:o|Kuku Yau|Kuku Yao|Kuuk Yak|Makadama|Yao,,273
n10-kuwema,Kuwema,Top End & Arnhem (NT),-12.857392163183,130.42511404323,Tyaraity|Tjerratj|Dak Tjerratj|Djerait|Tyeraity|Ponga Ponga|Pungupungu|Djeraidj|Dyeraidy|Kuwama|Guwema|Guwe|Nguluk Angguwe|Dek Tjerratj|Dek Tjirratj|Djeradj|Djiratj|Sherait|Djeraity|Tjerait|Cherites|Tjiras|Daktyeraty|Daktyerat|Cherait|Cherite|Jeerite|Scherits,,274
l9-kuyani,Kuyani,Lake Eyre / Central SA,-29.999298087804,137.94221674657,Guyani|Cooyiannie|Gujani|Kijani|Kiyani|Koonarie|Kooteeuna|Kooteeunna|Kooyeeunna|Kooyiannie|Kujani|Kuyanni|Kwiana|Kwiani|Nganitjidi|Ngannityddi|Ngannityiddi|Owinia,,275
c29-lower-arrernte,Lower Arrernte,Central Desert,-25.954571909387,135.39280716542,Alenjerntarrpe|Lower Aranda|Arrernte Imarnt|Arandic,Lower Arrernte language,276
c7-1-luritja,Luritja,Central Desert,-24.947084972136,133.15190280426,Pintupi Luritja|Jumu|Kukatja|Loritja|Matuntara|Ngalia|Aluratja|Aluratji|Aluridia|Aluridja|Lo rit ya|Loorudgee|Loorudgie|Loritcha|Luridja|Luritcha|Lurritji|Maiulatara|Manggai|Mulatara|Nambulatji|Panara|Pardoo|Peedona|Peedong|Uluritdja|Wanaeka|Wangatjunga|Wangatunga|Wangkadjungga|Wangkatjunga|Wangkatunga|Wangu|Wankutjunga|Western Loritja|Gogadja|Gugada|Gugadja|Juluridja|Kukacha|Kukadja|Kukata,Luritja dialect,277
y31-mamangathi,Mamangathi,Cape York & Torres Strait,-12.55515981019,141.98662157308,Awngthim|Mamngaid|Mamangidigh|Mbalidjan|Ndorndorin|Ngwatainggeti|Wikwija|Winduwinda|Angutimi,Awngthim language,278
d44-mandandanji,Mandandanji,Darling (W NSW/SW Qld),-27.017654125538,148.50172738516,Mandandanjdji|Mandandanyi|Mandandandji|Manandanyi|Mundaeinbura|Mundainbara|Kogai|Cogai|Fishing Net people|Maranoa Gunggari|Eastern Gunggari,,279
n53-mengerrdji,Mengerrdji,Top End & Arnhem (NT),-12.350974624518,133.0237758697,Mangerr|Gunwinggu|Mengerrdji/Menngarr|Kunwinjku|Mangeri|Menngarr|Ari|Eireij|Ere|Erei|Erej|Erre|Mangerei|Mennagi|Mengerei|Mengerdji|Mangerdji|Mengerr|Manger|Mangarryu|Mangeryu|Berrigurruk|Eri|Rereri|Reveri,,280
n6-menthe,Menthe,Top End & Arnhem (NT),-13.637667770393,129.92067307134,Menhthe|Daktjerat|Murinwargad|Wagaid|Wagaidj|Wagait|Wagaitj|Wagatsch|Waggait|Waggate|Waggite|Waggote|Waggute|Wagite|Waogatsch|Wargad|Wodadj|Wogadj|Wogait|Wogaity|Wogatj|Wogaty|Wogite|Worgaid|Worgaidj|Worgait|Worgite|Menthajangal|Menthe Yangal|Manthi Yangal|Murrinh Menthe|Murrinh Mentherr|Mendajangal|Manda,,281
a9-mirning,Mirning,Western Desert (WA),-31.29303041962,128.15349327077,Meening|Mining|Minninng|Mirniny|Ba:duk|Baaduk|Bardok|East Meening|East Mining|Eucla|Ikala|Ikula|Jirkala Mining|Jirkla mirning|Julbara|Julbari|Jurgala|Jurgula|Minal njunga|Mininj|Minnal yungar|Minning|Mirin|Mirningj|Murram|Ngadjadjara|Ngadjudjara|Ngadjuwonga|Ngandada|Ngandatha|Wanbiri|Wanmaraing|Warnabinnie|Warnabirri|Warnabirrie|Wonbil|Wonburi|Wonunda meening|Wonunda minung|Wonunda Mirning|Yerkla Mining|Yircla|Yirkala Mining|Yirkla|Yirkla Mining|Yurgala|Mirnin|Mirninj|Wonbil also Wonburi|Jirkala Mining has another explanation for the name,Mirning language,282
k44-miwa,Miwa,Kimberley (WA),-14.127304137837,127.04181562118,Bagu|Arnhem Land|Daly River Region Languages|Pela|Boola|Caloombooroo|Galumburu|Gonin|Gunan|Kaianu|Kalumbura|Kianu|Konan|Konin|Konun|Koonange|Kuna|Kunange|Kyanoo|Manda|Mande|Manunggu|Manungu|Murgura|Pago|Pelange|Ulangu|Umari|Walar|Wulanggur|Wulangu|Miwi|Oombulgurri|Ulagu Wulau,,283
y97-muluridji,Muluridji,Cape York & Torres Strait,-17.118567956488,145.34983460775,Kuku|Muluridyi|Kuku yalanji|Djankun|Jungkurara|Kokojelandji|Kokokulunggur|Kokowalandja|Wakara|Wulpura|Binjara|Gugu Muluridyi|Kokanodna|Koko moloroiji|koko moloroitji|Kokomoloreij|Kokomoloreitji|Kookanoona|Molloreiji|Molloroiji|Moorlooratchee|Mulari ji|Mularitchee|Mullridgey|Muluritji|Waluridji|Muluriji|Mulurutji|Kokomoloroij,,284
d8-mutti-mutti-muthi-muthi,Mutti Mutti / Muthi Muthi,Darling (W NSW/SW Qld),-33.753156051553,142.72174530242,Madhi Madhi|Madi Madi|Bakiin|Mataua|Matimati|Matthee matthee|Moorta Moorta|Mudhi Mudhi|Muthimuthi|Muti muti|Muttee Muttee|Mutte Mutte|Mutti Mutti,Madhi Madhi dialect,285
a43-ngaatjatjarra,Ngaatjatjarra,Western Desert (WA),-25.081125185629,128.54199255349,Ngaatjatjarr|Ngaanyatjarra|Ngaadjadjara|Ngatatjara|Ngadadjara|Bidungu|Madutjara|Maliar:a|Nalada|Ngaatjatarra|Ngada|Ngadawangga|Ngadawongga|Ngadhawonga|Ngaiawongga|Ngaiu wonga|Ngajawonga|Ngarawonga|Ngarga|Ngargawonga|Ngayawangga|Nyadadjara|Pidungu|Tekateka|Wallawee|WaulaNgaadadjara|Ngadatjara|Jabungadja|Ku:rara|Nadadjara|Nga:dapitjardi|Ngad adara|Ngadatara|Ngadjatara|Nganadjara|Ngatatara|Rumudjara|Teitudjara|Wan:udjara|Warara|Wirtjandja|Witjandja,Ngaatjatjarra dialect,286
l5-ngadjuri,Ngadjuri,Lake Eyre / Central SA,-32.930160660336,139.08123163651,Aluri|Alury|Boanawari|Burra Burra|Doora|Eeleeree|Eura|Hillary|Hilleri|Manu|Manuley|Manuri|Mimbara|Monnoo|Ngadhuri|Ngadluri|Ngaluri|Ngarluri|Weera|Werra|Wiramaya|Wirameju|Wirameyu|Wirra|Wirramaya|Wirramayo|Wirrameyu|Yilrea|Youngye|Eeeleeree|Boanawari Doora|Ngajuri,Ngadjuri language,287
s46-ngarigu-ngarigo,Ngarigu / Ngarigo,SE Australia,-35.902188353656,148.76737453036,"Ngarrugu|Walgalu|Bemeringal|""Boombala tribe""|Bradjerak|Brajerak|Brajeran|""Cooma tribe"" Currak da bidgee|Garego|Guramal|Gurmal|""Menero tribe""|Murring|Narigo|Ngarago|Ngaragu|Ngarego|Ngarico|Ngarroogoo|Ngarrugo|Ngaruku|Ngaryo|Ngundura|Nguramal|Ngarruga|Currak da bidgee|Brajerang|Ngarigo|Ngarigu",Ngarigo language,288
c27-ngarinyman,Ngarinyman,Central Desert,-16.590380084618,130.25517727725,Ngarinman|Agarinman|ainman|Airiman|Hainman|Heineman|Hyneman|Nariman|Narinman|Ngaiman|Ngaimmun|Ngainman|Ngainmun|Ngarnman|Ngraimun|Ngrainmun|Ngaringman|Hairiman,,289
y198-ogh-ikarranggal,Ogh Ikarranggal,Cape York & Torres Strait,-14.633398605782,143.94188226557,Ikarranggal|Aghu Tharnggalu|Ikarranggali,Ikarranggal language,290
a102-pindiini,Pindiini,Western Desert (WA),-29.465956641058,127.76626114849,Wangkatha|Bindinini|Pindini|Pintiini|Wangkathaa|Maduwongga|Ngurlu|Waljen|Wanggaji|Wangkayi|Bindunda|Pini|Wangaga|Wanggada|Wonga|Wongai i|Wongaidya|Wonggai|Wonggaii|Wongi|Wonkai,,291
y125-tagalaka,Tagalaka,Cape York & Torres Strait,-18.1973276258,142.96122717197,Takalak|Thaypan|Tagalag|Dagalang|Da:galag|Targa lag|Tarkalag,Tagalaka language,292
w21-tharrkari,Tharrkari,SW WA / Pilbara,-23.756546624791,114.96198555341,Dhargari|Tharrgari|Targari|Tharkarri|Dalgari|Dargari|Tarkari|Tarkarri|Tarlgarri|Tarugari|Thadgarri|Thargari,,293
e39-wadjigu,Wadjigu,SE Queensland,-24.808523639971,148.57335257653,Wadja|Wadju|Maudalgo|Wadjainggo|Waindjago|Wainggo|Wainjago|Wainjigo|Wadya,,294
g36-walangama,Walangama,Gulf Country,-17.885734161981,141.93473152078,Bugulmara|Karan|Wahlongman|Wallankammer|Wallenkammer|Wollangama|Wollongurmee,Walangama language,295
w22-warriyangga,Warriyangga,SW WA / Pilbara,-24.629701906581,115.77195356062,Warriyangka|Wariyangga|Malgaru|Malykaru|Warianga|Woorienga|Wadi|Wadiwangga|Wari wonga|Wariangga|Warienga|Wariengga|Wariwongga|Warrijangga|Warriwonga|Woorenga|Worrienga|Wariyanga|iengga,,296
s29-wathaurong,Wathaurong,SE Australia,-37.838172450317,143.92119964125,Wadha wurrung|Wuddyawurru|Witouro|Kurung|Wadawurung|Wataurung|Bengali|Borumbeet Bulluk|Buniyong|Wada wurrung|Wadawio|Waddorow|Waddowro|Wadjawuru|Wadourer|Wadthaurung|Waitowrung|Wardy yallock|Warra|Wathaurang|Wathaurung|Wathurung|Watorrong|Wiityahuurong|Witaoro|Witawurong|Witoura|Witowro|Witowurong|Witowurrong|Witowurrung|Witowurung|Witswrong|Wittyawhuurong|Woddowro|Woddowrong|Wollowurong|Woodowro|Wothowurong|Wuddyawurra|Wudja:wuru|Wudjawurung|Wudthaurung|Wadhurung|Wathawurung|Watowrong|Wartorong|Wotowrong|Watourong|Wat r ong|Woddow row|Wad thou rong|Waddow|Wattowrong|Wattouerong|Wadthowrong|Wadourong|Watouring|Waturong|Witowrong|Wadawerang|Waddowwerrer|dowwerrer|wer|rer|Wartarang|Wartowerang|Wartowerong|Wartow werang|Wartowrong|tow|rong|Waterwrong|Wortowerong|Watawerong|Woolowrong|Wor tow ong|Worerong|Wad dow wer rong|Wod|Watowerong|Waddowerong|Waddowerang|Wadong|Wadoung|Wadouro|Wadowrong|Wot tow rong|Witourong|Wadower|Wadowio|Wodowro|Widowra|Widoura|Wadowro|Wadoora|Wawtowerang|Wartowong|Wotowerong|Woodowrow|Wodourow|Wodowo|Geelong|Corio natives|Wiitya whuurong|Djilong|Wudhurung|Wudhaurung|Wudhauwurung|Wadthawurung|Watchaora|Wuddiau rung|Wudthawurung|Wud tha wrung|Wuddyawea|Wudtharung|Wodowrong|Wataurun|Wudjawuwu|Woddowerong|Widouro|Watha wurrung|Waltaurun|Wudjawurong|Wuddjawurro|Woithurong|Wudthaurun|Woltrowurong|Watdjurang|Wathourung|Wadiwid|Wadawrang|Wateran|Water ang|Watowerang|Wadthaurang|Woddoro|Wotherwurong|Wittowurrung|Witaioro|Wad ja wurru|Wud ja warra|Wadja wurrung|Witherwerong|Wittoro|Wad dow er er|Wit ya whaurung|Wada wurung Clark 1990:309] Wathawurrung|Buninyong,Wadawurrung language,297
s17-wergaia,Wergaia,SE Australia,-35.868519702683,142.12073571642,Wergaya|Jupagalk|Maligundidj|Warke Warke|Wotjobalek|Buibatjali|Buibatyalli|Djadjala|Gnallbagootchyourl|Gourrbaluk|Iyattyala|Kurm me lak|Malikunditji|Malleegunditch|Tjatijala|Tyattyalla|Wattyabullak|Woitu bullar|Worjoballuk|Wotjo ba laiuruk|Wotjobaluk|Woychibirik|Wudjubalug|Wuttyabullak|Wuttyuballeak|Warka tyalli|Weika tyalli|Wakaua|Mirdiragoort: evidently related to Wotti wotti dialect|Wirtu|Wirtoo|Wengen marongeitch|Wereka tyalli|Wereka|Worgaia,Wergaia dialect,298
y52-wik-epa,Wik Epa,Cape York & Torres Strait,-13.895443596467,141.78876612047,Wik Ep|Wik Iit|Wik|Wik Epa/Wikepa|Wikatinda|Wik Ompom|Wikampama|Wik Kalkan|Wik Ngathara|Wik Meanha|Wikmean|Wiknatanja|Mimungkum|Wik Mungkana|Wiknantjara|Eba|Epa|Eppe|Wik Ep Wik Eppa|Wikeppe|WikMeAnh|Wik Iita|Wik Eppa,,299
y172-wik-iyanh,Wik Iyanh,Cape York & Torres Strait,-14.429895365243,141.93747039673,Kugu/Wik Iyanh|Wik Iiyanh|Wik Iyanja|Wikianji|Wik Iiyanyi|Wik Iiyeny|Wikianyi|Wik Iyena|Wik Iiyenj|Wik Iiyanji|Mungkanhu,,300
y173-wik-keyangan,Wik-keyangan,Cape York & Torres Strait,-14.189513726544,141.90544162365,Wik Keyenganh|Wik Kayngan,,301
k35-wilawila,Wilawila,Kimberley (WA),-15.077980095294,127.02311686831,Ngarinyin|Guwij|Munumburru|Ngarinjin|Ngarnawu|Ungarinjin|Wolyamidi|Andadja|Andedja|Andidja|Kalari|Kandjanan|Kundjanan|Munumbara|Munumburu|Piarngongo|Taib|Taibange|Ullumbuloo|Wular|Wulu,,302
n68-yangman,Yangman,Top End & Arnhem (NT),-15.414291460469,132.49948283474,Jangman|Yungman|Jongman|Jungman|Yungmanni|Yungmun|Yungmunee|Yungmunnee|Yungmunni,,303
l23-yawarrawarrka,Yawarrawarrka,Lake Eyre / Central SA,-26.534406581472,140.43913375357,Yawarawarga|Yawarawarka|Jauraworka|Jawarawarka|Yaurorka|Yowerawoolka|Janweraworga|Jarawurga|Jaurorka|Jawarawarga|Jawarawonga|Jawaraworga|Yalaurawarka|Yarawuarka|Yarrawaurka|Yarrawoorka|Yarrawurka|Yarroworka|Yauarawaka|Yaurawakka|Yauraworga|Yauroka|Yauroworka|Yawarraworga|Yerawaka|Yowerawarrika,,304
d2-yorta-yorta,Yorta Yorta,Darling (W NSW/SW Qld),-36.093929709321,145.26357989848,Yota Yota|Bangerang|Jotijota|Yoda Yoda|Arramouro|Benhedore|Jabulajabula|Jodajoda|Moira|Narinari|Ngarimawuru|Ngarrimouro|Ngarrimowra|Wollithiga|Woollathura|Yabulayabula|Yoorta|Yotta Yotta|Yabola|Yota|Gunbowers|Gunbowerooranditchgoole|Ngarrimowro,Yorta Yorta language,305
y34-aritinngithigh,Aritinngithigh,Cape York & Torres Strait,-12.951840977869,141.93320168013,Aritinngayth|Uradhi|Aritinngithig|Aretingit|Aritingiti|Adetingiti|Arritinngithigh,Arritinngithigh language,306
g12-ayerrerenge,Ayerrerenge,Gulf Country,-21.393810830516,137.41542686257,Bularnu|Jaroinga|Yaroinga|Jurangka|Manda|Yaringa|Yarroinga|Yarrowin|Yorrawinga|Jarionga|Yarrowinga|Juruwinga|Yaruwinga|Yorrowinga|Yuruwinga|Bulanja|Bulanu|Pulanja|Ayerrereng|Arandic,,307
w10-ballardong,Ballardong,SW WA / Pilbara,-31.555545946533,117.13168711006,Balardung|Ballerdokking|Boyangura|Maiawongi|Mudila|Toode nunjer|Waljuk|Warranger|Warrangul|Baladon|Balardong|Balladong|Ballardon|Ballerdocking|Boijangura|Booyungur|Boyangoora|Mean anger|Meenung|Meernanger|Minang|Minnal Yungar|Minung|Mirnong|Mudi:a|Mudilja|Warrangle,Ballardong,308
d5-barababaraba,Barababaraba,Darling (W NSW/SW Qld),-35.673702896047,144.61137635412,Baraparapa|Barappur|Bareber Bareber|Barraba barraba|Birraba birraba|Boora boora|Boorabirraba|Boort|Burabura|Burappa|Burapper|Burrabura ba|Burraburburaba|Burreba burreba|Karraba|Beraba Beraba|Berrapper dialect|Barrappur|Baraber|Boraipar,Barababaraba dialect,309
d40-barunggam,Barunggam,Darling (W NSW/SW Qld),-26.795066410177,150.44677287025,Wakawaka|Barunggama|Barungam|Parrungoom|Murrumgama|Murrun gama|Murrumningama|Kogai|Gogai|Cogai,Barunggam language,310
d34-bigambul,Bigambul,Darling (W NSW/SW Qld),-28.141392890643,150.17482703916,Bigambal|Pikambul|Bee gum bul|Begumble|Bigabul|Bigambel|Bigumble|Bigunbil|Peekumble|Pickimbul|Pickum bul|Pickumbil|Pickumble|Picum bul|Picumbill|Pikambal|Pikum bul|Pikumbal|Pikumbil|Pikumpal|Preagalgh|Pregalgh|Wee n gul la mbul|Wigal wollumbul|Bigumbil,Bigambul language,311
n36-bilinarra,Bilinarra,Top End & Arnhem (NT),-16.966859566959,130.74496547137,Pilinara|Ngarinman|Bunara|Bilinara|Bilinurra|Bilyanarra|Bilyanurra|Plinara|Pillenurra|Billianera|Bulinara|Bringara|Boonarra,Bilinarra language,312
e61-bindal,Bindal,SE Queensland,-19.563568549898,147.11055856083,Lower Burdekin|Nyawaygi|Bendalgubber|Bindel|North Murri,Bindal language,313
e30-butchulla,Butchulla,SE Queensland,-25.337220044704,153.03282012261,Batjala|Badjala|Badtjala|Ngulungbara|Badjela|Patyala|Badtala|Batyala|Badyala|Bidhala|Dulingbara|Thoorgine for Batjala|Olongbura|Gnoolongbara|Koolaburra for Ngulungbara,,314
s44-dhudhuroa,Dhudhuroa,SE Australia,-36.364168507212,147.69259522264,possible further name: Yaithmathang|Jaitmatang|Duduroa|Djilamatang|Kandangora|Theddora|Yaitmathang|Dhudhruwa|Dhuduroa|Do|dor|dee|Dodora|Dodoro|Toutourrite|Theddora mittung|Duduruwa|Tharamirttong|Tharamittong|Tharo mattay|Jeenong metong|Dyinning middhang|Ginning matong,Dhudhuroa language,315
s30-gulidjan,Gulidjan,SE Australia,-38.228208868419,143.69559753363,Kolakngat|Kolitjon|Gulagngad|Bungilearney Colagiens|Colac conedeet|Coligan|Colijon|Colongulac|Golagngad|Karakoi|Karakoo|Kolac gnat|Kolae|Kolidjon|Koligon|Kolijon|Kolocgnat|Kulidyan|Lolifon|Lolijon|the tribe of the Colac|Collijon|Caligun|Calogien|Caligan|Kolifan|Koligian|Do lai jin|Colybin|Coligen|Caligon|Colijan|Colejohn|Kotigin|Kolijin|Koligan|Colack natives|Coladjin|Calligans|Colligans|Colagins|Colack|Bungilcarney colagians|Colac dialect|Kolakgnat|Kolac ngat|Colack blacks|Kullidyan|Kolaknat|Colajin|Coladjins|Koladgin|Col lai jin,Gulidjan language,316
s68-gunai-kurnai,Gunai / Kurnai,SE Australia,-37.975109995794,146.97262467362,Kanai|Muk thang|Gaanay|Kurnai|Kunnai|Brabralung|Braiakaulung|Bratauolung|Ganai|Krauatungalung|Tatungalung|Gunai group|Gurnai|Kurmai|Cunni|Gooni|Gunna|Guna|Gunai,Gunaikurnai language,317
l16-gungadidji,Gungadidji,Lake Eyre / Central SA,-26.351890738861,142.02527533877,Birria|Kungadutji|Wangkumara|Kungatutji|Bidia|Kulumali|Marulta|Bundamara|Diraila|Jarumarra|Karendala|Mamwura|Ngandangara|Ngurawola|Punthamara|Thiraila|Wankumara|Gongadidji|Gundadidji|Gundadji|Gungadudji|Gunggadudji|Kunatacheel|Kunatatchee|Kungaditji|Kungarditchi|Kungkatuti|Palpakunu|Kunatachee|Kungardutyi,Kungardutyi language,318
g9-1-guwa,Guwa,Gulf Country,-22.036939228068,142.31935154191,Goa|Koa|Goamulgo|Coa|Coah,Guwa language,319
e26-guwar,Guwar,SE Queensland,-27.167686536092,153.4003410629,Yuggera|Gowar|Jagara|Koenpul|Ngugi|Nunukul|Turrubul|Yagara|Booroo geen merrie|Chunchiburri|Coowar|Gnoogee|Gooar|Goowar|Gowr burra|Guar|Mugee|Nooghi|Wodji|Wogee|Quandamooka,Guwar language,320
a4-kalaamaya,Kalaamaya,Western Desert (WA),-30.263691528344,119.0129787698,Kaprun|Karlamay|Nyunga|Galamaia|Jabururru|Jawan|Kalamaia|Kelamai|Natingero|Takalako|Watjanmay|Yabro|Galamai|Galamaya|Jaburu|Jungaa|Jungal|Kala:mai|Kaallarmaay|Kalamay|Kalamaya|Njindango|Youngal|Youngar|Yungar|Galamay,Kalaamaya language,321
c33-karranga,Karranga,Central Desert,-16.214558371984,131.36063023452,Mudbura|Karangpurru|Karrangpurru,Karranga language,322
a51-kartujarra,Kartujarra,Western Desert (WA),-23.282962677149,122.06253619927,Kartutjarra|Martu Wangka|Katutjara|Katudjara|Katatjara|Kardudjara|Gadudjara|Wal mala|Orailku|Ngadari,Kartutjarra language,323
y93-koko-dhawa,Koko Dhawa,Cape York & Torres Strait,-16.050900536399,141.80615325644,Kok Thaw|a|Koko Petitj|Uw Inhal|Ogh Injigharr|Da:wa|Daua|Koka tabul|Koko daua|Tyor|Yabul|Yahwah|Gugu Dhaw|Kwantari|Uw Inal|Koko Pititj|Kuantari|Kundara|Gundara|Goondarra|Wangara|Wanggara|Kokowanggara|Kokawan gar|Kokodaue|Oikand,Gugu Dhaw language,324
y90-kuku-nyungkul,Kuku Nyungkul,Cape York & Torres Strait,-15.750294371885,145.25132113345,Kuku Njungkul|Kuku Yalanji|Gugu Nyungkul|Kuku Nyungkal,Kuku Nyungkal dialect,325
l38-kungkari,Kungkari,Lake Eyre / Central SA,-24.5383120242,144.27519218575,Kuungkari|Gungari|Koongerri|Yangeeberra|Koonkerri|Kungeri|Yangeberra|Yankibura|Guunggari|Gunggari|Kunggari|Torra burri|Mokaburra|Tarawalla,Kungkari language,326
